[
    {
        "stop_id": "1_01",
        "stop_code": "(降車専用)",
        "stop_name": "青森駅 (降車専用)",
        "name": "青森駅 (降車専用)",
        "stop_desc": "",
        "stop_lat": "40.8280809999999",
        "stop_lon": "140.734870428571",
        "zone_id": "1_01",
        "stop_url": "",
        "location_type": "0",
        "platform_code": "",
        "parent_station": "",
        "furigana": "あおもりえき  (こうしゃせんよう)"
    },
    {
        "stop_id": "1_02",
        "stop_code": "②のりば",
        "stop_name": "青森駅 ②のりば",
        "name": "青森駅 ②のりば",
        "stop_desc": "",
        "stop_lat": "40.8281309999999",
        "stop_lon": "140.734587285714",
        "zone_id": "1_02",
        "stop_url": "",
        "location_type": "0",
        "platform_code": "2",
        "parent_station": "",
        "furigana": "あおもりえき に のりば"
    },
    {
        "stop_id": "1_03",
        "stop_code": "③のりば",
        "stop_name": "青森駅 ③のりば",
        "name": "青森駅 ③のりば",
        "stop_desc": "",
        "stop_lat": "40.8280269999999",
        "stop_lon": "140.734522857143",
        "zone_id": "1_03",
        "stop_url": "",
        "location_type": "0",
        "platform_code": "3",
        "parent_station": "",
        "furigana": "あおもりえき さん のりば"
    },
    {
        "stop_id": "1_04",
        "stop_code": "④のりば",
        "stop_name": "青森駅 ④のりば",
        "name": "青森駅 ④のりば",
        "stop_desc": "",
        "stop_lat": "40.8279239999999",
        "stop_lon": "140.734467714286",
        "zone_id": "1_04",
        "stop_url": "",
        "location_type": "0",
        "platform_code": "4",
        "parent_station": "",
        "furigana": "あおもりえき よん のりば"
    },
    {
        "stop_id": "1_06",
        "stop_code": "⑥のりば",
        "stop_name": "青森駅 ⑥のりば",
        "name": "青森駅 ⑥のりば",
        "stop_desc": "",
        "stop_lat": "40.82825",
        "stop_lon": "140.73485",
        "zone_id": "1_06",
        "stop_url": "",
        "location_type": "0",
        "platform_code": "6",
        "parent_station": "",
        "furigana": "あおもりえき ろく のりば"
    },
    {
        "stop_id": "2_02",
        "stop_code": "",
        "stop_name": "古川一丁目",
        "name": "古川一丁目",
        "stop_desc": "",
        "stop_lat": "40.826467",
        "stop_lon": "140.736044",
        "zone_id": "2_02",
        "stop_url": "",
        "location_type": "0",
        "platform_code": "",
        "parent_station": "",
        "furigana": "ふるかわいっちょうめ"
    },
    {
        "stop_id": "3_01",
        "stop_code": "①のりば",
        "stop_name": "古川 ①のりば",
        "name": "古川 ①のりば",
        "stop_desc": "",
        "stop_lat": "40.824242",
        "stop_lon": "140.735627",
        "zone_id": "3_01",
        "stop_url": "",
        "location_type": "0",
        "platform_code": "1",
        "parent_station": "",
        "furigana": "ふるかわ  いち のりば"
    },
    {
        "stop_id": "3_02",
        "stop_code": "②のりば",
        "stop_name": "古川 ②のりば",
        "name": "古川 ②のりば",
        "stop_desc": "",
        "stop_lat": "40.824189",
        "stop_lon": "140.736048",
        "zone_id": "3_02",
        "stop_url": "",
        "location_type": "0",
        "platform_code": "2",
        "parent_station": "",
        "furigana": "ふるかわ に のりば"
    },
    {
        "stop_id": "3_03",
        "stop_code": "③のりば",
        "stop_name": "古川 ③のりば",
        "name": "古川 ③のりば",
        "stop_desc": "",
        "stop_lat": "40.824031",
        "stop_lon": "140.737057",
        "zone_id": "3_03",
        "stop_url": "",
        "location_type": "0",
        "platform_code": "3",
        "parent_station": "",
        "furigana": "ふるかわ  さん のりば"
    },
    {
        "stop_id": "3_04",
        "stop_code": "④のりば",
        "stop_name": "古川 ④のりば",
        "name": "古川 ④のりば",
        "stop_desc": "",
        "stop_lat": "40.823974",
        "stop_lon": "140.737457",
        "zone_id": "3_04",
        "stop_url": "",
        "location_type": "0",
        "platform_code": "4",
        "parent_station": "",
        "furigana": "ふるかわ  よん のりば"
    },
    {
        "stop_id": "3_05",
        "stop_code": "⑤のりば",
        "stop_name": "古川 ⑤のりば",
        "name": "古川 ⑤のりば",
        "stop_desc": "",
        "stop_lat": "40.823873",
        "stop_lon": "140.738243",
        "zone_id": "3_05",
        "stop_url": "",
        "location_type": "0",
        "platform_code": "5",
        "parent_station": "",
        "furigana": "ふるかわ ご のりば"
    },
    {
        "stop_id": "3_06",
        "stop_code": "⑥のりば",
        "stop_name": "古川 ⑥のりば",
        "name": "古川 ⑥のりば",
        "stop_desc": "",
        "stop_lat": "40.82447",
        "stop_lon": "140.73581",
        "zone_id": "3_06",
        "stop_url": "",
        "location_type": "0",
        "platform_code": "6",
        "parent_station": "",
        "furigana": "ふるかわ ろく のりば"
    },
    {
        "stop_id": "3_08",
        "stop_code": "⑧のりば",
        "stop_name": "古川 ⑧のりば",
        "name": "古川 ⑧のりば",
        "stop_desc": "",
        "stop_lat": "40.824198",
        "stop_lon": "140.7376",
        "zone_id": "3_08",
        "stop_url": "",
        "location_type": "0",
        "platform_code": "8",
        "parent_station": "",
        "furigana": "ふるかわ はち のりば"
    },
    {
        "stop_id": "3_09",
        "stop_code": "⑨のりば",
        "stop_name": "古川 ⑨のりば",
        "name": "古川 ⑨のりば",
        "stop_desc": "",
        "stop_lat": "40.823645",
        "stop_lon": "140.736386",
        "zone_id": "3_09",
        "stop_url": "",
        "location_type": "0",
        "platform_code": "9",
        "parent_station": "",
        "furigana": "ふるかわ きゅう のりば"
    },
    {
        "stop_id": "4_01",
        "stop_code": "",
        "stop_name": "県庁前",
        "name": "県庁前",
        "stop_desc": "",
        "stop_lat": "40.823389",
        "stop_lon": "140.741593",
        "zone_id": "4_01",
        "stop_url": "",
        "location_type": "0",
        "platform_code": "",
        "parent_station": "",
        "furigana": "けんちょうまえ"
    },
    {
        "stop_id": "4_02",
        "stop_code": "",
        "stop_name": "県庁前",
        "name": "県庁前",
        "stop_desc": "",
        "stop_lat": "40.82387",
        "stop_lon": "140.74",
        "zone_id": "4_02",
        "stop_url": "",
        "location_type": "0",
        "platform_code": "",
        "parent_station": "",
        "furigana": "けんちょうまえ"
    },
    {
        "stop_id": "5_01",
        "stop_code": "",
        "stop_name": "市役所前",
        "name": "市役所前",
        "stop_desc": "",
        "stop_lat": "40.823004",
        "stop_lon": "140.746975",
        "zone_id": "5_01",
        "stop_url": "",
        "location_type": "0",
        "platform_code": "",
        "parent_station": "",
        "furigana": "しやくしょまえ"
    },
    {
        "stop_id": "5_02",
        "stop_code": "",
        "stop_name": "市役所前",
        "name": "市役所前",
        "stop_desc": "",
        "stop_lat": "40.823217",
        "stop_lon": "140.74685",
        "zone_id": "5_02",
        "stop_url": "",
        "location_type": "0",
        "platform_code": "",
        "parent_station": "",
        "furigana": "しやくしょまえ"
    },
    {
        "stop_id": "6_01",
        "stop_code": "",
        "stop_name": "ＮＴＴ青森支店前",
        "name": "ＮＴＴ青森支店前",
        "stop_desc": "",
        "stop_lat": "40.823318",
        "stop_lon": "140.751155",
        "zone_id": "6_01",
        "stop_url": "",
        "location_type": "0",
        "platform_code": "",
        "parent_station": "",
        "furigana": "えぬてぃてぃあおもりしてんまえ"
    },
    {
        "stop_id": "6_02",
        "stop_code": "",
        "stop_name": "ＮＴＴ青森支店前",
        "name": "ＮＴＴ青森支店前",
        "stop_desc": "",
        "stop_lat": "40.823576",
        "stop_lon": "140.751426",
        "zone_id": "6_02",
        "stop_url": "",
        "location_type": "0",
        "platform_code": "",
        "parent_station": "",
        "furigana": "えぬてぃてぃあおもりしてんまえ"
    },
    {
        "stop_id": "6_03",
        "stop_code": "",
        "stop_name": "ＮＴＴ青森支店前",
        "name": "ＮＴＴ青森支店前",
        "stop_desc": "",
        "stop_lat": "40.822646",
        "stop_lon": "140.75019",
        "zone_id": "6_03",
        "stop_url": "",
        "location_type": "0",
        "platform_code": "",
        "parent_station": "",
        "furigana": "えぬてぃてぃあおもりしてんまえ"
    },
    {
        "stop_id": "6_04",
        "stop_code": "",
        "stop_name": "ＮＴＴ青森支店前",
        "name": "ＮＴＴ青森支店前",
        "stop_desc": "",
        "stop_lat": "40.822413",
        "stop_lon": "140.750461",
        "zone_id": "6_04",
        "stop_url": "",
        "location_type": "0",
        "platform_code": "",
        "parent_station": "",
        "furigana": "えぬてぃてぃあおもりしてんまえ"
    },
    {
        "stop_id": "6_05",
        "stop_code": "",
        "stop_name": "ＮＴＴ青森支店前",
        "name": "ＮＴＴ青森支店前",
        "stop_desc": "",
        "stop_lat": "40.82454",
        "stop_lon": "140.750268",
        "zone_id": "6_05",
        "stop_url": "",
        "location_type": "0",
        "platform_code": "",
        "parent_station": "",
        "furigana": "えぬてぃてぃあおもりしてんまえ"
    },
    {
        "stop_id": "7_01",
        "stop_code": "",
        "stop_name": "文化会館前",
        "name": "文化会館前",
        "stop_desc": "",
        "stop_lat": "40.823635",
        "stop_lon": "140.755404",
        "zone_id": "7_01",
        "stop_url": "",
        "location_type": "0",
        "platform_code": "",
        "parent_station": "",
        "furigana": "ぶんかかいかんまえ"
    },
    {
        "stop_id": "7_02",
        "stop_code": "",
        "stop_name": "文化会館前",
        "name": "文化会館前",
        "stop_desc": "",
        "stop_lat": "40.823917",
        "stop_lon": "140.755509",
        "zone_id": "7_02",
        "stop_url": "",
        "location_type": "0",
        "platform_code": "",
        "parent_station": "",
        "furigana": "ぶんかかいかんまえ"
    },
    {
        "stop_id": "7_03",
        "stop_code": "",
        "stop_name": "文化会館前",
        "name": "文化会館前",
        "stop_desc": "",
        "stop_lat": "40.82289",
        "stop_lon": "140.754624",
        "zone_id": "7_03",
        "stop_url": "",
        "location_type": "0",
        "platform_code": "",
        "parent_station": "",
        "furigana": "ぶんかかいかんまえ"
    },
    {
        "stop_id": "7_04",
        "stop_code": "",
        "stop_name": "文化会館前",
        "name": "文化会館前",
        "stop_desc": "",
        "stop_lat": "40.823232",
        "stop_lon": "140.754827",
        "zone_id": "7_04",
        "stop_url": "",
        "location_type": "0",
        "platform_code": "",
        "parent_station": "",
        "furigana": "ぶんかかいかんまえ"
    },
    {
        "stop_id": "8_01",
        "stop_code": "",
        "stop_name": "堤橋",
        "name": "堤橋",
        "stop_desc": "",
        "stop_lat": "40.82404",
        "stop_lon": "140.760452",
        "zone_id": "8_01",
        "stop_url": "",
        "location_type": "0",
        "platform_code": "",
        "parent_station": "",
        "furigana": "つつみばし"
    },
    {
        "stop_id": "8_02",
        "stop_code": "",
        "stop_name": "堤橋",
        "name": "堤橋",
        "stop_desc": "",
        "stop_lat": "40.824326",
        "stop_lon": "140.760856",
        "zone_id": "8_02",
        "stop_url": "",
        "location_type": "0",
        "platform_code": "",
        "parent_station": "",
        "furigana": "つつみばし"
    },
    {
        "stop_id": "8_03",
        "stop_code": "",
        "stop_name": "堤橋",
        "name": "堤橋",
        "stop_desc": "",
        "stop_lat": "40.823522",
        "stop_lon": "140.761816",
        "zone_id": "8_03",
        "stop_url": "",
        "location_type": "0",
        "platform_code": "",
        "parent_station": "",
        "furigana": "つつみばし"
    },
    {
        "stop_id": "8_04",
        "stop_code": "",
        "stop_name": "堤橋",
        "name": "堤橋",
        "stop_desc": "",
        "stop_lat": "40.823634",
        "stop_lon": "140.761642",
        "zone_id": "8_04",
        "stop_url": "",
        "location_type": "0",
        "platform_code": "",
        "parent_station": "",
        "furigana": "つつみばし"
    },
    {
        "stop_id": "9_01",
        "stop_code": "",
        "stop_name": "栄町一丁目",
        "name": "栄町一丁目",
        "stop_desc": "",
        "stop_lat": "40.824509",
        "stop_lon": "140.764496",
        "zone_id": "9_01",
        "stop_url": "",
        "location_type": "0",
        "platform_code": "",
        "parent_station": "",
        "furigana": "さかえまちいっちょうめ"
    },
    {
        "stop_id": "9_02",
        "stop_code": "",
        "stop_name": "栄町一丁目",
        "name": "栄町一丁目",
        "stop_desc": "",
        "stop_lat": "40.824854",
        "stop_lon": "140.765597",
        "zone_id": "9_02",
        "stop_url": "",
        "location_type": "0",
        "platform_code": "",
        "parent_station": "",
        "furigana": "さかえまちいっちょうめ"
    },
    {
        "stop_id": "10_01",
        "stop_code": "",
        "stop_name": "栄町二丁目",
        "name": "栄町二丁目",
        "stop_desc": "",
        "stop_lat": "40.825114",
        "stop_lon": "140.769955",
        "zone_id": "10_01",
        "stop_url": "",
        "location_type": "0",
        "platform_code": "",
        "parent_station": "",
        "furigana": "さかえまちにちょうめ"
    },
    {
        "stop_id": "10_02",
        "stop_code": "",
        "stop_name": "栄町二丁目",
        "name": "栄町二丁目",
        "stop_desc": "",
        "stop_lat": "40.825339",
        "stop_lon": "140.769864",
        "zone_id": "10_02",
        "stop_url": "",
        "location_type": "0",
        "platform_code": "",
        "parent_station": "",
        "furigana": "さかえまちにちょうめ"
    },
    {
        "stop_id": "10_03",
        "stop_code": "",
        "stop_name": "栄町二丁目",
        "name": "栄町二丁目",
        "stop_desc": "",
        "stop_lat": "40.824679",
        "stop_lon": "140.76903",
        "zone_id": "10_03",
        "stop_url": "",
        "location_type": "0",
        "platform_code": "",
        "parent_station": "",
        "furigana": "さかえまちにちょうめ"
    },
    {
        "stop_id": "10_04",
        "stop_code": "",
        "stop_name": "栄町二丁目",
        "name": "栄町二丁目",
        "stop_desc": "",
        "stop_lat": "40.824774",
        "stop_lon": "140.768799",
        "zone_id": "10_04",
        "stop_url": "",
        "location_type": "0",
        "platform_code": "",
        "parent_station": "",
        "furigana": "さかえまちにちょうめ"
    },
    {
        "stop_id": "11_01",
        "stop_code": "",
        "stop_name": "合浦町",
        "name": "合浦町",
        "stop_desc": "",
        "stop_lat": "40.826042",
        "stop_lon": "140.775716",
        "zone_id": "11_01",
        "stop_url": "",
        "location_type": "0",
        "platform_code": "",
        "parent_station": "",
        "furigana": "がっぽまち"
    },
    {
        "stop_id": "11_02",
        "stop_code": "",
        "stop_name": "合浦町",
        "name": "合浦町",
        "stop_desc": "",
        "stop_lat": "40.826014",
        "stop_lon": "140.774116",
        "zone_id": "11_02",
        "stop_url": "",
        "location_type": "0",
        "platform_code": "",
        "parent_station": "",
        "furigana": "がっぽまち"
    },
    {
        "stop_id": "12_01",
        "stop_code": "",
        "stop_name": "合浦公園前",
        "name": "合浦公園前",
        "stop_desc": "",
        "stop_lat": "40.826629",
        "stop_lon": "140.778399",
        "zone_id": "12_01",
        "stop_url": "",
        "location_type": "0",
        "platform_code": "",
        "parent_station": "",
        "furigana": "がっぽこうえんまえ"
    },
    {
        "stop_id": "12_02",
        "stop_code": "",
        "stop_name": "合浦公園前",
        "name": "合浦公園前",
        "stop_desc": "",
        "stop_lat": "40.827094",
        "stop_lon": "140.778626",
        "zone_id": "12_02",
        "stop_url": "",
        "location_type": "0",
        "platform_code": "",
        "parent_station": "",
        "furigana": "がっぽこうえんまえ"
    },
    {
        "stop_id": "12_03",
        "stop_code": "",
        "stop_name": "合浦公園前",
        "name": "合浦公園前",
        "stop_desc": "",
        "stop_lat": "40.826138",
        "stop_lon": "140.77975",
        "zone_id": "12_03",
        "stop_url": "",
        "location_type": "0",
        "platform_code": "",
        "parent_station": "",
        "furigana": "がっぽこうえんまえ"
    },
    {
        "stop_id": "12_04",
        "stop_code": "",
        "stop_name": "合浦公園前",
        "name": "合浦公園前",
        "stop_desc": "",
        "stop_lat": "40.826166",
        "stop_lon": "140.779519",
        "zone_id": "12_04",
        "stop_url": "",
        "location_type": "0",
        "platform_code": "",
        "parent_station": "",
        "furigana": "がっぽこうえんまえ"
    },
    {
        "stop_id": "13_01",
        "stop_code": "",
        "stop_name": "岡造道一丁目",
        "name": "岡造道一丁目",
        "stop_desc": "",
        "stop_lat": "40.827639",
        "stop_lon": "140.782557",
        "zone_id": "13_01",
        "stop_url": "",
        "location_type": "0",
        "platform_code": "",
        "parent_station": "",
        "furigana": "おかつくりみちいっちょうめ"
    },
    {
        "stop_id": "13_02",
        "stop_code": "",
        "stop_name": "岡造道一丁目",
        "name": "岡造道一丁目",
        "stop_desc": "",
        "stop_lat": "40.827815",
        "stop_lon": "140.781414",
        "zone_id": "13_02",
        "stop_url": "",
        "location_type": "0",
        "platform_code": "",
        "parent_station": "",
        "furigana": "おかつくりみちいっちょうめ"
    },
    {
        "stop_id": "14_01",
        "stop_code": "",
        "stop_name": "造道",
        "name": "造道",
        "stop_desc": "",
        "stop_lat": "40.830226",
        "stop_lon": "140.785942",
        "zone_id": "14_01",
        "stop_url": "",
        "location_type": "0",
        "platform_code": "",
        "parent_station": "",
        "furigana": "つくりみち"
    },
    {
        "stop_id": "14_02",
        "stop_code": "",
        "stop_name": "造道",
        "name": "造道",
        "stop_desc": "",
        "stop_lat": "40.82981",
        "stop_lon": "140.784944",
        "zone_id": "14_02",
        "stop_url": "",
        "location_type": "0",
        "platform_code": "",
        "parent_station": "",
        "furigana": "つくりみち"
    },
    {
        "stop_id": "14_03",
        "stop_code": "",
        "stop_name": "造道",
        "name": "造道",
        "stop_desc": "",
        "stop_lat": "40.828487",
        "stop_lon": "140.784949",
        "zone_id": "14_03",
        "stop_url": "",
        "location_type": "0",
        "platform_code": "",
        "parent_station": "",
        "furigana": "つくりみち"
    },
    {
        "stop_id": "15_01",
        "stop_code": "",
        "stop_name": "沢田橋",
        "name": "沢田橋",
        "stop_desc": "",
        "stop_lat": "40.832067",
        "stop_lon": "140.789823",
        "zone_id": "15_01",
        "stop_url": "",
        "location_type": "0",
        "platform_code": "",
        "parent_station": "",
        "furigana": "さわたばし"
    },
    {
        "stop_id": "15_02",
        "stop_code": "",
        "stop_name": "沢田橋",
        "name": "沢田橋",
        "stop_desc": "",
        "stop_lat": "40.832142",
        "stop_lon": "140.789646",
        "zone_id": "15_02",
        "stop_url": "",
        "location_type": "0",
        "platform_code": "",
        "parent_station": "",
        "furigana": "さわたばし"
    },
    {
        "stop_id": "17_01",
        "stop_code": "",
        "stop_name": "新町一丁目",
        "name": "新町一丁目",
        "stop_desc": "",
        "stop_lat": "40.826184",
        "stop_lon": "140.738013",
        "zone_id": "17_01",
        "stop_url": "",
        "location_type": "0",
        "platform_code": "",
        "parent_station": "",
        "furigana": "あらまちいっちょうめ"
    },
    {
        "stop_id": "17_03",
        "stop_code": "",
        "stop_name": "新町一丁目",
        "name": "新町一丁目",
        "stop_desc": "",
        "stop_lat": "40.82667",
        "stop_lon": "140.738979",
        "zone_id": "17_03",
        "stop_url": "",
        "location_type": "0",
        "platform_code": "",
        "parent_station": "",
        "furigana": "あらまちいっちょうめ"
    },
    {
        "stop_id": "17_04",
        "stop_code": "",
        "stop_name": "新町一丁目",
        "name": "新町一丁目",
        "stop_desc": "",
        "stop_lat": "40.827143",
        "stop_lon": "140.73787",
        "zone_id": "17_04",
        "stop_url": "",
        "location_type": "0",
        "platform_code": "",
        "parent_station": "",
        "furigana": "あらまちいっちょうめ"
    },
    {
        "stop_id": "18_01",
        "stop_code": "",
        "stop_name": "県庁通り",
        "name": "県庁通り",
        "stop_desc": "",
        "stop_lat": "40.826345",
        "stop_lon": "140.740559",
        "zone_id": "18_01",
        "stop_url": "",
        "location_type": "0",
        "platform_code": "",
        "parent_station": "",
        "furigana": "けんちょうどおり"
    },
    {
        "stop_id": "18_02",
        "stop_code": "",
        "stop_name": "県庁通り",
        "name": "県庁通り",
        "stop_desc": "",
        "stop_lat": "40.826185",
        "stop_lon": "140.742241",
        "zone_id": "18_02",
        "stop_url": "",
        "location_type": "0",
        "platform_code": "",
        "parent_station": "",
        "furigana": "けんちょうどおり"
    },
    {
        "stop_id": "19_01",
        "stop_code": "",
        "stop_name": "新町二丁目",
        "name": "新町二丁目",
        "stop_desc": "",
        "stop_lat": "40.825608",
        "stop_lon": "140.744699",
        "zone_id": "19_01",
        "stop_url": "",
        "location_type": "0",
        "platform_code": "",
        "parent_station": "",
        "furigana": "あらまちにちょうめ"
    },
    {
        "stop_id": "19_02",
        "stop_code": "",
        "stop_name": "新町二丁目",
        "name": "新町二丁目",
        "stop_desc": "",
        "stop_lat": "40.825754",
        "stop_lon": "140.744729",
        "zone_id": "19_02",
        "stop_url": "",
        "location_type": "0",
        "platform_code": "",
        "parent_station": "",
        "furigana": "あらまちにちょうめ"
    },
    {
        "stop_id": "870_01",
        "stop_code": "",
        "stop_name": "北高校",
        "name": "北高校",
        "stop_desc": "",
        "stop_lat": "40.8503553277484",
        "stop_lon": "140.688922405243",
        "zone_id": "870_01",
        "stop_url": "",
        "location_type": "0",
        "platform_code": "",
        "parent_station": "",
        "furigana": "きたこうこう"
    },
    {
        "stop_id": "870_02",
        "stop_code": "",
        "stop_name": "北高校",
        "name": "北高校",
        "stop_desc": "",
        "stop_lat": "40.8502173636817",
        "stop_lon": "140.688643455505",
        "zone_id": "870_02",
        "stop_url": "",
        "location_type": "0",
        "platform_code": "",
        "parent_station": "",
        "furigana": "きたこうこう"
    },
    {
        "stop_id": "27_01",
        "stop_code": "",
        "stop_name": "下六枚橋昇龍の松前",
        "name": "下六枚橋昇龍の松前",
        "stop_desc": "",
        "stop_lat": "40.928142",
        "stop_lon": "140.665833",
        "zone_id": "27_01",
        "stop_url": "",
        "location_type": "0",
        "platform_code": "",
        "parent_station": "",
        "furigana": "げろくまえばししょうりゅうの まつまえ"
    },
    {
        "stop_id": "27_02",
        "stop_code": "",
        "stop_name": "下六枚橋昇龍の松前",
        "name": "下六枚橋昇龍の松前",
        "stop_desc": "",
        "stop_lat": "40.928079",
        "stop_lon": "140.665967",
        "zone_id": "27_02",
        "stop_url": "",
        "location_type": "0",
        "platform_code": "",
        "parent_station": "",
        "furigana": "げろくまえばししょうりゅうの まつまえ"
    },
    {
        "stop_id": "28_01",
        "stop_code": "",
        "stop_name": "下安田",
        "name": "下安田",
        "stop_desc": "",
        "stop_lat": "40.804087",
        "stop_lon": "140.710748",
        "zone_id": "28_01",
        "stop_url": "",
        "location_type": "0",
        "platform_code": "",
        "parent_station": "",
        "furigana": "しもやすた"
    },
    {
        "stop_id": "28_02",
        "stop_code": "",
        "stop_name": "下安田",
        "name": "下安田",
        "stop_desc": "",
        "stop_lat": "40.804541",
        "stop_lon": "140.710545",
        "zone_id": "28_02",
        "stop_url": "",
        "location_type": "0",
        "platform_code": "",
        "parent_station": "",
        "furigana": "しもやすた"
    },
    {
        "stop_id": "29_01",
        "stop_code": "",
        "stop_name": "古川三丁目",
        "name": "古川三丁目",
        "stop_desc": "",
        "stop_lat": "40.821704",
        "stop_lon": "140.736554",
        "zone_id": "29_01",
        "stop_url": "",
        "location_type": "0",
        "platform_code": "",
        "parent_station": "",
        "furigana": "ふるかわさんちょうめ"
    },
    {
        "stop_id": "30_01",
        "stop_code": "",
        "stop_name": "長島四丁目",
        "name": "長島四丁目",
        "stop_desc": "",
        "stop_lat": "40.820127",
        "stop_lon": "140.739472",
        "zone_id": "30_01",
        "stop_url": "",
        "location_type": "0",
        "platform_code": "",
        "parent_station": "",
        "furigana": "ながしま よんちょうめ"
    },
    {
        "stop_id": "31_01",
        "stop_code": "",
        "stop_name": "中央大橋",
        "name": "中央大橋",
        "stop_desc": "",
        "stop_lat": "40.820052",
        "stop_lon": "140.744539",
        "zone_id": "31_01",
        "stop_url": "",
        "location_type": "0",
        "platform_code": "",
        "parent_station": "",
        "furigana": "ちゅうおうおおはし"
    },
    {
        "stop_id": "31_02",
        "stop_code": "",
        "stop_name": "中央大橋",
        "name": "中央大橋",
        "stop_desc": "",
        "stop_lat": "40.820158",
        "stop_lon": "140.744051",
        "zone_id": "31_02",
        "stop_url": "",
        "location_type": "0",
        "platform_code": "",
        "parent_station": "",
        "furigana": "ちゅうおうおおはし"
    },
    {
        "stop_id": "31_03",
        "stop_code": "",
        "stop_name": "中央大橋",
        "name": "中央大橋",
        "stop_desc": "",
        "stop_lat": "40.819486",
        "stop_lon": "140.742959",
        "zone_id": "31_03",
        "stop_url": "",
        "location_type": "0",
        "platform_code": "",
        "parent_station": "",
        "furigana": "ちゅうおうおおはし"
    },
    {
        "stop_id": "32_01",
        "stop_code": "",
        "stop_name": "中央二丁目",
        "name": "中央二丁目",
        "stop_desc": "",
        "stop_lat": "40.820082",
        "stop_lon": "140.74781",
        "zone_id": "32_01",
        "stop_url": "",
        "location_type": "0",
        "platform_code": "",
        "parent_station": "",
        "furigana": "ちゅうおうにちょうめ"
    },
    {
        "stop_id": "33_01",
        "stop_code": "",
        "stop_name": "橋本三丁目",
        "name": "橋本三丁目",
        "stop_desc": "",
        "stop_lat": "40.82049",
        "stop_lon": "140.750696",
        "zone_id": "33_01",
        "stop_url": "",
        "location_type": "0",
        "platform_code": "",
        "parent_station": "",
        "furigana": "はしもとさんちょうめ"
    },
    {
        "stop_id": "33_02",
        "stop_code": "",
        "stop_name": "橋本三丁目",
        "name": "橋本三丁目",
        "stop_desc": "",
        "stop_lat": "40.820299",
        "stop_lon": "140.750506",
        "zone_id": "33_02",
        "stop_url": "",
        "location_type": "0",
        "platform_code": "",
        "parent_station": "",
        "furigana": "はしもとさんちょうめ"
    },
    {
        "stop_id": "33_03",
        "stop_code": "",
        "stop_name": "橋本三丁目",
        "name": "橋本三丁目",
        "stop_desc": "",
        "stop_lat": "40.820557",
        "stop_lon": "140.750117",
        "zone_id": "33_03",
        "stop_url": "",
        "location_type": "0",
        "platform_code": "",
        "parent_station": "",
        "furigana": "はしもとさんちょうめ"
    },
    {
        "stop_id": "36_01",
        "stop_code": "",
        "stop_name": "聴覚障害者情報センター前",
        "name": "聴覚障害者情報センター前",
        "stop_desc": "",
        "stop_lat": "40.795458",
        "stop_lon": "140.767098",
        "zone_id": "36_01",
        "stop_url": "",
        "location_type": "0",
        "platform_code": "",
        "parent_station": "",
        "furigana": "ちょうかくしょうがいしゃじょうほうせんたーまえ"
    },
    {
        "stop_id": "36_02",
        "stop_code": "",
        "stop_name": "聴覚障害者情報センター前",
        "name": "聴覚障害者情報センター前",
        "stop_desc": "",
        "stop_lat": "40.794778",
        "stop_lon": "140.767441",
        "zone_id": "36_02",
        "stop_url": "",
        "location_type": "0",
        "platform_code": "",
        "parent_station": "",
        "furigana": "ちょうかくしょうがいしゃじょうほうせんたーまえ"
    },
    {
        "stop_id": "37_01",
        "stop_code": "",
        "stop_name": "東高校通り",
        "name": "東高校通り",
        "stop_desc": "",
        "stop_lat": "40.838057",
        "stop_lon": "140.803656",
        "zone_id": "37_01",
        "stop_url": "",
        "location_type": "0",
        "platform_code": "",
        "parent_station": "",
        "furigana": "ひがしこうこうどおり"
    },
    {
        "stop_id": "37_02",
        "stop_code": "",
        "stop_name": "東高校通り",
        "name": "東高校通り",
        "stop_desc": "",
        "stop_lat": "40.837974",
        "stop_lon": "140.803669",
        "zone_id": "37_02",
        "stop_url": "",
        "location_type": "0",
        "platform_code": "",
        "parent_station": "",
        "furigana": "ひがしこうこうどおり"
    },
    {
        "stop_id": "39_01",
        "stop_code": "",
        "stop_name": "サンドーム通り",
        "name": "サンドーム通り",
        "stop_desc": "",
        "stop_lat": "40.799996",
        "stop_lon": "140.752487",
        "zone_id": "39_01",
        "stop_url": "",
        "location_type": "0",
        "platform_code": "",
        "parent_station": "",
        "furigana": "さんどーむどおり"
    },
    {
        "stop_id": "39_02",
        "stop_code": "",
        "stop_name": "サンドーム通り",
        "name": "サンドーム通り",
        "stop_desc": "",
        "stop_lat": "40.799807",
        "stop_lon": "140.752879",
        "zone_id": "39_02",
        "stop_url": "",
        "location_type": "0",
        "platform_code": "",
        "parent_station": "",
        "furigana": "さんどーむどおり"
    },
    {
        "stop_id": "44_01",
        "stop_code": "",
        "stop_name": "浜館五丁目",
        "name": "浜館五丁目",
        "stop_desc": "",
        "stop_lat": "40.808839",
        "stop_lon": "140.79223",
        "zone_id": "44_01",
        "stop_url": "",
        "location_type": "0",
        "platform_code": "",
        "parent_station": "",
        "furigana": "はまだて ごちょうめ"
    },
    {
        "stop_id": "44_02",
        "stop_code": "",
        "stop_name": "浜館五丁目",
        "name": "浜館五丁目",
        "stop_desc": "",
        "stop_lat": "40.808459",
        "stop_lon": "140.792163",
        "zone_id": "44_02",
        "stop_url": "",
        "location_type": "0",
        "platform_code": "",
        "parent_station": "",
        "furigana": "はまだて ごちょうめ"
    },
    {
        "stop_id": "45_01",
        "stop_code": "",
        "stop_name": "南造道",
        "name": "南造道",
        "stop_desc": "",
        "stop_lat": "40.828035",
        "stop_lon": "140.789234",
        "zone_id": "45_01",
        "stop_url": "",
        "location_type": "0",
        "platform_code": "",
        "parent_station": "",
        "furigana": "みなみつくりみち"
    },
    {
        "stop_id": "45_02",
        "stop_code": "",
        "stop_name": "南造道",
        "name": "南造道",
        "stop_desc": "",
        "stop_lat": "40.828195",
        "stop_lon": "140.789958",
        "zone_id": "45_02",
        "stop_url": "",
        "location_type": "0",
        "platform_code": "",
        "parent_station": "",
        "furigana": "みなみつくりみち"
    },
    {
        "stop_id": "46_01",
        "stop_code": "",
        "stop_name": "県立中央病院通り",
        "name": "県立中央病院通り",
        "stop_desc": "",
        "stop_lat": "40.82763",
        "stop_lon": "140.794609",
        "zone_id": "46_01",
        "stop_url": "",
        "location_type": "0",
        "platform_code": "",
        "parent_station": "",
        "furigana": "けんりつちゅうおうびょういんどおり"
    },
    {
        "stop_id": "46_02",
        "stop_code": "",
        "stop_name": "県立中央病院通り",
        "name": "県立中央病院通り",
        "stop_desc": "",
        "stop_lat": "40.82798",
        "stop_lon": "140.79423",
        "zone_id": "46_02",
        "stop_url": "",
        "location_type": "0",
        "platform_code": "",
        "parent_station": "",
        "furigana": "けんりつちゅうおうびょういんどおり"
    },
    {
        "stop_id": "46_03",
        "stop_code": "",
        "stop_name": "県立中央病院通り",
        "name": "県立中央病院通り",
        "stop_desc": "",
        "stop_lat": "40.826849",
        "stop_lon": "140.79551",
        "zone_id": "46_03",
        "stop_url": "",
        "location_type": "0",
        "platform_code": "",
        "parent_station": "",
        "furigana": "けんりつちゅうおうびょういんどおり"
    },
    {
        "stop_id": "46_04",
        "stop_code": "",
        "stop_name": "県立中央病院通り",
        "name": "県立中央病院通り",
        "stop_desc": "",
        "stop_lat": "40.827147",
        "stop_lon": "140.795483",
        "zone_id": "46_04",
        "stop_url": "",
        "location_type": "0",
        "platform_code": "",
        "parent_station": "",
        "furigana": "けんりつちゅうおうびょういんどおり"
    },
    {
        "stop_id": "47_01",
        "stop_code": "",
        "stop_name": "県立中央病院前",
        "name": "県立中央病院前",
        "stop_desc": "",
        "stop_lat": "40.829474",
        "stop_lon": "140.792247",
        "zone_id": "47_01",
        "stop_url": "",
        "location_type": "0",
        "platform_code": "",
        "parent_station": "",
        "furigana": "けんりつちゅうおうびょういんまえ"
    },
    {
        "stop_id": "47_02",
        "stop_code": "",
        "stop_name": "県立中央病院前",
        "name": "県立中央病院前",
        "stop_desc": "",
        "stop_lat": "40.829117",
        "stop_lon": "140.792293",
        "zone_id": "47_02",
        "stop_url": "",
        "location_type": "0",
        "platform_code": "",
        "parent_station": "",
        "furigana": "けんりつちゅうおうびょういんまえ"
    },
    {
        "stop_id": "47_03",
        "stop_code": "(病院構内)",
        "stop_name": "県立中央病院前 (病院構内)",
        "name": "県立中央病院前 (病院構内)",
        "stop_desc": "",
        "stop_lat": "40.829421",
        "stop_lon": "140.793408",
        "zone_id": "47_03",
        "stop_url": "",
        "location_type": "0",
        "platform_code": "",
        "parent_station": "",
        "furigana": "けんりつちゅうおうびょういんまえ  (びょういんこうない)"
    },
    {
        "stop_id": "47_04",
        "stop_code": "(降車専用)",
        "stop_name": "県立中央病院前 (降車専用)",
        "name": "県立中央病院前 (降車専用)",
        "stop_desc": "",
        "stop_lat": "40.829429",
        "stop_lon": "140.793124",
        "zone_id": "47_04",
        "stop_url": "",
        "location_type": "0",
        "platform_code": "",
        "parent_station": "",
        "furigana": "けんりつちゅうおうびょういんまえ  (こうしゃせんよう)"
    },
    {
        "stop_id": "48_01",
        "stop_code": "",
        "stop_name": "八重田",
        "name": "八重田",
        "stop_desc": "",
        "stop_lat": "40.835517",
        "stop_lon": "140.79664",
        "zone_id": "48_01",
        "stop_url": "",
        "location_type": "0",
        "platform_code": "",
        "parent_station": "",
        "furigana": "やえだ"
    },
    {
        "stop_id": "48_02",
        "stop_code": "",
        "stop_name": "八重田",
        "name": "八重田",
        "stop_desc": "",
        "stop_lat": "40.835627",
        "stop_lon": "140.796627",
        "zone_id": "48_02",
        "stop_url": "",
        "location_type": "0",
        "platform_code": "",
        "parent_station": "",
        "furigana": "やえだ"
    },
    {
        "stop_id": "49_01",
        "stop_code": "",
        "stop_name": "矢作",
        "name": "矢作",
        "stop_desc": "",
        "stop_lat": "40.83741",
        "stop_lon": "140.80066",
        "zone_id": "49_01",
        "stop_url": "",
        "location_type": "0",
        "platform_code": "",
        "parent_station": "",
        "furigana": "やはぎ"
    },
    {
        "stop_id": "49_02",
        "stop_code": "",
        "stop_name": "矢作",
        "name": "矢作",
        "stop_desc": "",
        "stop_lat": "40.837922",
        "stop_lon": "140.80141",
        "zone_id": "49_02",
        "stop_url": "",
        "location_type": "0",
        "platform_code": "",
        "parent_station": "",
        "furigana": "やはぎ"
    },
    {
        "stop_id": "50_01",
        "stop_code": "",
        "stop_name": "原別",
        "name": "原別",
        "stop_desc": "",
        "stop_lat": "40.840197",
        "stop_lon": "140.805315",
        "zone_id": "50_01",
        "stop_url": "",
        "location_type": "0",
        "platform_code": "",
        "parent_station": "",
        "furigana": "はらべつ"
    },
    {
        "stop_id": "50_02",
        "stop_code": "",
        "stop_name": "原別",
        "name": "原別",
        "stop_desc": "",
        "stop_lat": "40.840668",
        "stop_lon": "140.805835285714",
        "zone_id": "50_02",
        "stop_url": "",
        "location_type": "0",
        "platform_code": "",
        "parent_station": "",
        "furigana": "はらべつ"
    },
    {
        "stop_id": "51_01",
        "stop_code": "",
        "stop_name": "下海原",
        "name": "下海原",
        "stop_desc": "",
        "stop_lat": "40.843454",
        "stop_lon": "140.809544",
        "zone_id": "51_01",
        "stop_url": "",
        "location_type": "0",
        "platform_code": "",
        "parent_station": "",
        "furigana": "しもうなばら"
    },
    {
        "stop_id": "51_02",
        "stop_code": "",
        "stop_name": "下海原",
        "name": "下海原",
        "stop_desc": "",
        "stop_lat": "40.843477",
        "stop_lon": "140.809415",
        "zone_id": "51_02",
        "stop_url": "",
        "location_type": "0",
        "platform_code": "",
        "parent_station": "",
        "furigana": "しもうなばら"
    },
    {
        "stop_id": "52_01",
        "stop_code": "",
        "stop_name": "上海原",
        "name": "上海原",
        "stop_desc": "",
        "stop_lat": "40.844704",
        "stop_lon": "140.812076",
        "zone_id": "52_01",
        "stop_url": "",
        "location_type": "0",
        "platform_code": "",
        "parent_station": "",
        "furigana": "かみうなばら"
    },
    {
        "stop_id": "52_02",
        "stop_code": "",
        "stop_name": "上海原",
        "name": "上海原",
        "stop_desc": "",
        "stop_lat": "40.844532",
        "stop_lon": "140.811346",
        "zone_id": "52_02",
        "stop_url": "",
        "location_type": "0",
        "platform_code": "",
        "parent_station": "",
        "furigana": "かみうなばら"
    },
    {
        "stop_id": "53_01",
        "stop_code": "",
        "stop_name": "野内駅前",
        "name": "野内駅前",
        "stop_desc": "",
        "stop_lat": "40.846248",
        "stop_lon": "140.816215",
        "zone_id": "53_01",
        "stop_url": "",
        "location_type": "0",
        "platform_code": "",
        "parent_station": "",
        "furigana": "のないえきまえ"
    },
    {
        "stop_id": "53_02",
        "stop_code": "",
        "stop_name": "野内駅前",
        "name": "野内駅前",
        "stop_desc": "",
        "stop_lat": "40.846514",
        "stop_lon": "140.816456",
        "zone_id": "53_02",
        "stop_url": "",
        "location_type": "0",
        "platform_code": "",
        "parent_station": "",
        "furigana": "のないえきまえ"
    },
    {
        "stop_id": "54_01",
        "stop_code": "",
        "stop_name": "北野内",
        "name": "北野内",
        "stop_desc": "",
        "stop_lat": "40.849499",
        "stop_lon": "140.817996",
        "zone_id": "54_01",
        "stop_url": "",
        "location_type": "0",
        "platform_code": "",
        "parent_station": "",
        "furigana": "きたのない"
    },
    {
        "stop_id": "54_02",
        "stop_code": "",
        "stop_name": "北野内",
        "name": "北野内",
        "stop_desc": "",
        "stop_lat": "40.84957",
        "stop_lon": "140.818189",
        "zone_id": "54_02",
        "stop_url": "",
        "location_type": "0",
        "platform_code": "",
        "parent_station": "",
        "furigana": "きたのない"
    },
    {
        "stop_id": "55_01",
        "stop_code": "",
        "stop_name": "東野内",
        "name": "東野内",
        "stop_desc": "",
        "stop_lat": "40.854035",
        "stop_lon": "140.82295",
        "zone_id": "55_01",
        "stop_url": "",
        "location_type": "0",
        "platform_code": "",
        "parent_station": "",
        "furigana": "ひがしのない"
    },
    {
        "stop_id": "55_02",
        "stop_code": "",
        "stop_name": "東野内",
        "name": "東野内",
        "stop_desc": "",
        "stop_lat": "40.853901",
        "stop_lon": "140.823073",
        "zone_id": "55_02",
        "stop_url": "",
        "location_type": "0",
        "platform_code": "",
        "parent_station": "",
        "furigana": "ひがしのない"
    },
    {
        "stop_id": "56_01",
        "stop_code": "",
        "stop_name": "野内",
        "name": "野内",
        "stop_desc": "",
        "stop_lat": "40.857332",
        "stop_lon": "140.825967",
        "zone_id": "56_01",
        "stop_url": "",
        "location_type": "0",
        "platform_code": "",
        "parent_station": "",
        "furigana": "のうち"
    },
    {
        "stop_id": "56_02",
        "stop_code": "",
        "stop_name": "野内",
        "name": "野内",
        "stop_desc": "",
        "stop_lat": "40.857492",
        "stop_lon": "140.826198",
        "zone_id": "56_02",
        "stop_url": "",
        "location_type": "0",
        "platform_code": "",
        "parent_station": "",
        "furigana": "のうち"
    },
    {
        "stop_id": "57_01",
        "stop_code": "",
        "stop_name": "浦島",
        "name": "浦島",
        "stop_desc": "",
        "stop_lat": "40.862584",
        "stop_lon": "140.835369",
        "zone_id": "57_01",
        "stop_url": "",
        "location_type": "0",
        "platform_code": "",
        "parent_station": "",
        "furigana": "うらしま"
    },
    {
        "stop_id": "57_02",
        "stop_code": "",
        "stop_name": "浦島",
        "name": "浦島",
        "stop_desc": "",
        "stop_lat": "40.862306",
        "stop_lon": "140.835179",
        "zone_id": "57_02",
        "stop_url": "",
        "location_type": "0",
        "platform_code": "",
        "parent_station": "",
        "furigana": "うらしま"
    },
    {
        "stop_id": "58_01",
        "stop_code": "",
        "stop_name": "観音寺通り",
        "name": "観音寺通り",
        "stop_desc": "",
        "stop_lat": "40.871254",
        "stop_lon": "140.842137",
        "zone_id": "58_01",
        "stop_url": "",
        "location_type": "0",
        "platform_code": "",
        "parent_station": "",
        "furigana": "かんおんじどおり"
    },
    {
        "stop_id": "58_02",
        "stop_code": "",
        "stop_name": "観音寺通り",
        "name": "観音寺通り",
        "stop_desc": "",
        "stop_lat": "40.871217",
        "stop_lon": "140.842346",
        "zone_id": "58_02",
        "stop_url": "",
        "location_type": "0",
        "platform_code": "",
        "parent_station": "",
        "furigana": "かんおんじどおり"
    },
    {
        "stop_id": "59_01",
        "stop_code": "",
        "stop_name": "久栗坂",
        "name": "久栗坂",
        "stop_desc": "",
        "stop_lat": "40.874013",
        "stop_lon": "140.847052",
        "zone_id": "59_01",
        "stop_url": "",
        "location_type": "0",
        "platform_code": "",
        "parent_station": "",
        "furigana": "くぐりざか"
    },
    {
        "stop_id": "59_02",
        "stop_code": "",
        "stop_name": "久栗坂",
        "name": "久栗坂",
        "stop_desc": "",
        "stop_lat": "40.874031",
        "stop_lon": "140.847225",
        "zone_id": "59_02",
        "stop_url": "",
        "location_type": "0",
        "platform_code": "",
        "parent_station": "",
        "furigana": "くぐりざか"
    },
    {
        "stop_id": "60_01",
        "stop_code": "",
        "stop_name": "青森敬仁会病院前",
        "name": "青森敬仁会病院前",
        "stop_desc": "",
        "stop_lat": "40.87624",
        "stop_lon": "140.849172",
        "zone_id": "60_01",
        "stop_url": "",
        "location_type": "0",
        "platform_code": "",
        "parent_station": "",
        "furigana": "あおもりたかひとかいびょういんまえ"
    },
    {
        "stop_id": "60_02",
        "stop_code": "",
        "stop_name": "青森敬仁会病院前",
        "name": "青森敬仁会病院前",
        "stop_desc": "",
        "stop_lat": "40.876747",
        "stop_lon": "140.849676",
        "zone_id": "60_02",
        "stop_url": "",
        "location_type": "0",
        "platform_code": "",
        "parent_station": "",
        "furigana": "あおもりたかひとかいびょういんまえ"
    },
    {
        "stop_id": "61_01",
        "stop_code": "",
        "stop_name": "津軽高野山",
        "name": "津軽高野山",
        "stop_desc": "",
        "stop_lat": "40.885722",
        "stop_lon": "140.856033",
        "zone_id": "61_01",
        "stop_url": "",
        "location_type": "0",
        "platform_code": "",
        "parent_station": "",
        "furigana": "つがるこうのやま"
    },
    {
        "stop_id": "61_02",
        "stop_code": "",
        "stop_name": "津軽高野山",
        "name": "津軽高野山",
        "stop_desc": "",
        "stop_lat": "40.88559",
        "stop_lon": "140.856288",
        "zone_id": "61_02",
        "stop_url": "",
        "location_type": "0",
        "platform_code": "",
        "parent_station": "",
        "furigana": "つがるこうのやま"
    },
    {
        "stop_id": "63_02",
        "stop_code": "",
        "stop_name": "浅虫消防分署前",
        "name": "浅虫消防分署前",
        "stop_desc": "",
        "stop_lat": "40.896459",
        "stop_lon": "140.861081",
        "zone_id": "63_02",
        "stop_url": "",
        "location_type": "0",
        "platform_code": "",
        "parent_station": "",
        "furigana": "あさむししょうぼうぶんしょまえ"
    },
    {
        "stop_id": "64_01",
        "stop_code": "",
        "stop_name": "浅虫水族館通り",
        "name": "浅虫水族館通り",
        "stop_desc": "",
        "stop_lat": "40.900436",
        "stop_lon": "140.861623",
        "zone_id": "64_01",
        "stop_url": "",
        "location_type": "0",
        "platform_code": "",
        "parent_station": "",
        "furigana": "あさむしすいぞくかんどおり"
    },
    {
        "stop_id": "64_02",
        "stop_code": "",
        "stop_name": "浅虫水族館通り",
        "name": "浅虫水族館通り",
        "stop_desc": "",
        "stop_lat": "40.900191",
        "stop_lon": "140.861548",
        "zone_id": "64_02",
        "stop_url": "",
        "location_type": "0",
        "platform_code": "",
        "parent_station": "",
        "furigana": "あさむしすいぞくかんどおり"
    },
    {
        "stop_id": "65_01",
        "stop_code": "",
        "stop_name": "道の駅ゆーさ浅虫前",
        "name": "道の駅ゆーさ浅虫前",
        "stop_desc": "",
        "stop_lat": "40.892523",
        "stop_lon": "140.861655",
        "zone_id": "65_01",
        "stop_url": "",
        "location_type": "0",
        "platform_code": "",
        "parent_station": "",
        "furigana": "みちの えきゆーさ あさむしまえ"
    },
    {
        "stop_id": "65_02",
        "stop_code": "",
        "stop_name": "道の駅ゆーさ浅虫前",
        "name": "道の駅ゆーさ浅虫前",
        "stop_desc": "",
        "stop_lat": "40.891534",
        "stop_lon": "140.861255",
        "zone_id": "65_02",
        "stop_url": "",
        "location_type": "0",
        "platform_code": "",
        "parent_station": "",
        "furigana": "みちの えきゆーさ あさむしまえ"
    },
    {
        "stop_id": "66_01",
        "stop_code": "",
        "stop_name": "アウガ前",
        "name": "アウガ前",
        "stop_desc": "",
        "stop_lat": "40.827685",
        "stop_lon": "140.736047",
        "zone_id": "66_01",
        "stop_url": "",
        "location_type": "0",
        "platform_code": "",
        "parent_station": "",
        "furigana": "あうがまえ"
    },
    {
        "stop_id": "143_01",
        "stop_code": "",
        "stop_name": "東高校前",
        "name": "東高校前",
        "stop_desc": "",
        "stop_lat": "40.836826",
        "stop_lon": "140.805528",
        "zone_id": "143_01",
        "stop_url": "",
        "location_type": "0",
        "platform_code": "",
        "parent_station": "",
        "furigana": "ひがしこうこうまえ"
    },
    {
        "stop_id": "143_02",
        "stop_code": "",
        "stop_name": "東高校前",
        "name": "東高校前",
        "stop_desc": "",
        "stop_lat": "40.836595",
        "stop_lon": "140.805346",
        "zone_id": "143_02",
        "stop_url": "",
        "location_type": "0",
        "platform_code": "",
        "parent_station": "",
        "furigana": "ひがしこうこうまえ"
    },
    {
        "stop_id": "144_01",
        "stop_code": "",
        "stop_name": "原別小学校前",
        "name": "原別小学校前",
        "stop_desc": "",
        "stop_lat": "40.833797",
        "stop_lon": "140.810096",
        "zone_id": "144_01",
        "stop_url": "",
        "location_type": "0",
        "platform_code": "",
        "parent_station": "",
        "furigana": "はらべつしょうがっこうまえ"
    },
    {
        "stop_id": "144_02",
        "stop_code": "",
        "stop_name": "原別小学校前",
        "name": "原別小学校前",
        "stop_desc": "",
        "stop_lat": "40.833659",
        "stop_lon": "140.809919",
        "zone_id": "144_02",
        "stop_url": "",
        "location_type": "0",
        "platform_code": "",
        "parent_station": "",
        "furigana": "はらべつしょうがっこうまえ"
    },
    {
        "stop_id": "146_01",
        "stop_code": "",
        "stop_name": "森越",
        "name": "森越",
        "stop_desc": "",
        "stop_lat": "40.830656",
        "stop_lon": "140.818766",
        "zone_id": "146_01",
        "stop_url": "",
        "location_type": "0",
        "platform_code": "",
        "parent_station": "",
        "furigana": "もりこし"
    },
    {
        "stop_id": "146_02",
        "stop_code": "",
        "stop_name": "森越",
        "name": "森越",
        "stop_desc": "",
        "stop_lat": "40.830232",
        "stop_lon": "140.819182",
        "zone_id": "146_02",
        "stop_url": "",
        "location_type": "0",
        "platform_code": "",
        "parent_station": "",
        "furigana": "もりこし"
    },
    {
        "stop_id": "147_01",
        "stop_code": "",
        "stop_name": "下諏訪沢",
        "name": "下諏訪沢",
        "stop_desc": "",
        "stop_lat": "40.828631",
        "stop_lon": "140.823869",
        "zone_id": "147_01",
        "stop_url": "",
        "location_type": "0",
        "platform_code": "",
        "parent_station": "",
        "furigana": "しもすわさわ"
    },
    {
        "stop_id": "147_02",
        "stop_code": "",
        "stop_name": "下諏訪沢",
        "name": "下諏訪沢",
        "stop_desc": "",
        "stop_lat": "40.828554",
        "stop_lon": "140.823692",
        "zone_id": "147_02",
        "stop_url": "",
        "location_type": "0",
        "platform_code": "",
        "parent_station": "",
        "furigana": "しもすわさわ"
    },
    {
        "stop_id": "148_01",
        "stop_code": "",
        "stop_name": "諏訪沢",
        "name": "諏訪沢",
        "stop_desc": "",
        "stop_lat": "40.827848",
        "stop_lon": "140.827496",
        "zone_id": "148_01",
        "stop_url": "",
        "location_type": "0",
        "platform_code": "",
        "parent_station": "",
        "furigana": "すわのさわ"
    },
    {
        "stop_id": "148_02",
        "stop_code": "",
        "stop_name": "諏訪沢",
        "name": "諏訪沢",
        "stop_desc": "",
        "stop_lat": "40.827766",
        "stop_lon": "140.827519",
        "zone_id": "148_02",
        "stop_url": "",
        "location_type": "0",
        "platform_code": "",
        "parent_station": "",
        "furigana": "すわのさわ"
    },
    {
        "stop_id": "149_01",
        "stop_code": "",
        "stop_name": "下築木館",
        "name": "下築木館",
        "stop_desc": "",
        "stop_lat": "40.824338",
        "stop_lon": "140.841979",
        "zone_id": "149_01",
        "stop_url": "",
        "location_type": "0",
        "platform_code": "",
        "parent_station": "",
        "furigana": "げつきのきだて"
    },
    {
        "stop_id": "149_02",
        "stop_code": "",
        "stop_name": "下築木館",
        "name": "下築木館",
        "stop_desc": "",
        "stop_lat": "40.824318",
        "stop_lon": "140.841808",
        "zone_id": "149_02",
        "stop_url": "",
        "location_type": "0",
        "platform_code": "",
        "parent_station": "",
        "furigana": "げつきのきだて"
    },
    {
        "stop_id": "150_01",
        "stop_code": "",
        "stop_name": "築木館",
        "name": "築木館",
        "stop_desc": "",
        "stop_lat": "40.82402",
        "stop_lon": "140.845096",
        "zone_id": "150_01",
        "stop_url": "",
        "location_type": "0",
        "platform_code": "",
        "parent_station": "",
        "furigana": "つきのきだて"
    },
    {
        "stop_id": "150_02",
        "stop_code": "",
        "stop_name": "築木館",
        "name": "築木館",
        "stop_desc": "",
        "stop_lat": "40.823988",
        "stop_lon": "140.845053",
        "zone_id": "150_02",
        "stop_url": "",
        "location_type": "0",
        "platform_code": "",
        "parent_station": "",
        "furigana": "つきのきだて"
    },
    {
        "stop_id": "151_01",
        "stop_code": "",
        "stop_name": "矢田前",
        "name": "矢田前",
        "stop_desc": "",
        "stop_lat": "40.832553",
        "stop_lon": "140.809391",
        "zone_id": "151_01",
        "stop_url": "",
        "location_type": "0",
        "platform_code": "",
        "parent_station": "",
        "furigana": "やたまえ"
    },
    {
        "stop_id": "152_01",
        "stop_code": "",
        "stop_name": "県立盲学校前",
        "name": "県立盲学校前",
        "stop_desc": "",
        "stop_lat": "40.831277",
        "stop_lon": "140.811239",
        "zone_id": "152_01",
        "stop_url": "",
        "location_type": "0",
        "platform_code": "",
        "parent_station": "",
        "furigana": "けんりつもうがっこうまえ"
    },
    {
        "stop_id": "154_01",
        "stop_code": "",
        "stop_name": "八重田通り",
        "name": "八重田通り",
        "stop_desc": "",
        "stop_lat": "40.826476",
        "stop_lon": "140.798104",
        "zone_id": "154_01",
        "stop_url": "",
        "location_type": "0",
        "platform_code": "",
        "parent_station": "",
        "furigana": "やえだどおり"
    },
    {
        "stop_id": "154_02",
        "stop_code": "",
        "stop_name": "八重田通り",
        "name": "八重田通り",
        "stop_desc": "",
        "stop_lat": "40.826739",
        "stop_lon": "140.798435",
        "zone_id": "154_02",
        "stop_url": "",
        "location_type": "0",
        "platform_code": "",
        "parent_station": "",
        "furigana": "やえだどおり"
    },
    {
        "stop_id": "154_03",
        "stop_code": "",
        "stop_name": "八重田通り",
        "name": "八重田通り",
        "stop_desc": "",
        "stop_lat": "40.825554",
        "stop_lon": "140.799421",
        "zone_id": "154_03",
        "stop_url": "",
        "location_type": "0",
        "platform_code": "",
        "parent_station": "",
        "furigana": "やえだどおり"
    },
    {
        "stop_id": "155_01",
        "stop_code": "",
        "stop_name": "後萢通り",
        "name": "後萢通り",
        "stop_desc": "",
        "stop_lat": "40.829428",
        "stop_lon": "140.81375",
        "zone_id": "155_01",
        "stop_url": "",
        "location_type": "0",
        "platform_code": "",
        "parent_station": "",
        "furigana": "うしろやちどおり"
    },
    {
        "stop_id": "155_02",
        "stop_code": "",
        "stop_name": "後萢通り",
        "name": "後萢通り",
        "stop_desc": "",
        "stop_lat": "40.829613",
        "stop_lon": "140.813672",
        "zone_id": "155_02",
        "stop_url": "",
        "location_type": "0",
        "platform_code": "",
        "parent_station": "",
        "furigana": "うしろやちどおり"
    },
    {
        "stop_id": "156_01",
        "stop_code": "",
        "stop_name": "ＪＡ青森支店前",
        "name": "ＪＡ青森支店前",
        "stop_desc": "",
        "stop_lat": "40.831696",
        "stop_lon": "140.81882",
        "zone_id": "156_01",
        "stop_url": "",
        "location_type": "0",
        "platform_code": "",
        "parent_station": "",
        "furigana": "じぇーえーあおもりしてんまえ"
    },
    {
        "stop_id": "156_02",
        "stop_code": "",
        "stop_name": "ＪＡ青森支店前",
        "name": "ＪＡ青森支店前",
        "stop_desc": "",
        "stop_lat": "40.831755",
        "stop_lon": "140.818571",
        "zone_id": "156_02",
        "stop_url": "",
        "location_type": "0",
        "platform_code": "",
        "parent_station": "",
        "furigana": "じぇーえーあおもりしてんまえ"
    },
    {
        "stop_id": "157_01",
        "stop_code": "",
        "stop_name": "岡造道大通り",
        "name": "岡造道大通り",
        "stop_desc": "",
        "stop_lat": "40.827442",
        "stop_lon": "140.784689",
        "zone_id": "157_01",
        "stop_url": "",
        "location_type": "0",
        "platform_code": "",
        "parent_station": "",
        "furigana": "おかつくりみちおおどおり"
    },
    {
        "stop_id": "158_01",
        "stop_code": "",
        "stop_name": "岡造道",
        "name": "岡造道",
        "stop_desc": "",
        "stop_lat": "40.826005",
        "stop_lon": "140.786145",
        "zone_id": "158_01",
        "stop_url": "",
        "location_type": "0",
        "platform_code": "",
        "parent_station": "",
        "furigana": "おかつくりみち"
    },
    {
        "stop_id": "158_02",
        "stop_code": "",
        "stop_name": "岡造道",
        "name": "岡造道",
        "stop_desc": "",
        "stop_lat": "40.825901",
        "stop_lon": "140.786054",
        "zone_id": "158_02",
        "stop_url": "",
        "location_type": "0",
        "platform_code": "",
        "parent_station": "",
        "furigana": "おかつくりみち"
    },
    {
        "stop_id": "159_01",
        "stop_code": "",
        "stop_name": "小柳",
        "name": "小柳",
        "stop_desc": "",
        "stop_lat": "40.820904",
        "stop_lon": "140.791791",
        "zone_id": "159_01",
        "stop_url": "",
        "location_type": "0",
        "platform_code": "",
        "parent_station": "",
        "furigana": "こやなぎ"
    },
    {
        "stop_id": "159_02",
        "stop_code": "",
        "stop_name": "小柳",
        "name": "小柳",
        "stop_desc": "",
        "stop_lat": "40.820961",
        "stop_lon": "140.791684",
        "zone_id": "159_02",
        "stop_url": "",
        "location_type": "0",
        "platform_code": "",
        "parent_station": "",
        "furigana": "こやなぎ"
    },
    {
        "stop_id": "160_01",
        "stop_code": "",
        "stop_name": "小柳団地入口",
        "name": "小柳団地入口",
        "stop_desc": "",
        "stop_lat": "40.819032",
        "stop_lon": "140.793707",
        "zone_id": "160_01",
        "stop_url": "",
        "location_type": "0",
        "platform_code": "",
        "parent_station": "",
        "furigana": "おやなぎだんちいりぐち"
    },
    {
        "stop_id": "160_02",
        "stop_code": "",
        "stop_name": "小柳団地入口",
        "name": "小柳団地入口",
        "stop_desc": "",
        "stop_lat": "40.819",
        "stop_lon": "140.793187",
        "zone_id": "160_02",
        "stop_url": "",
        "location_type": "0",
        "platform_code": "",
        "parent_station": "",
        "furigana": "おやなぎだんちいりぐち"
    },
    {
        "stop_id": "161_01",
        "stop_code": "",
        "stop_name": "小柳小学校前",
        "name": "小柳小学校前",
        "stop_desc": "",
        "stop_lat": "40.82001",
        "stop_lon": "140.79578",
        "zone_id": "161_01",
        "stop_url": "",
        "location_type": "0",
        "platform_code": "",
        "parent_station": "",
        "furigana": "こやなぎしょうがっこうまえ"
    },
    {
        "stop_id": "161_02",
        "stop_code": "",
        "stop_name": "小柳小学校前",
        "name": "小柳小学校前",
        "stop_desc": "",
        "stop_lat": "40.820053",
        "stop_lon": "140.795582",
        "zone_id": "161_02",
        "stop_url": "",
        "location_type": "0",
        "platform_code": "",
        "parent_station": "",
        "furigana": "こやなぎしょうがっこうまえ"
    },
    {
        "stop_id": "163_01",
        "stop_code": "",
        "stop_name": "小柳橋",
        "name": "小柳橋",
        "stop_desc": "",
        "stop_lat": "40.822594",
        "stop_lon": "140.798602",
        "zone_id": "163_01",
        "stop_url": "",
        "location_type": "0",
        "platform_code": "",
        "parent_station": "",
        "furigana": "おやなぎばし"
    },
    {
        "stop_id": "163_02",
        "stop_code": "",
        "stop_name": "小柳橋",
        "name": "小柳橋",
        "stop_desc": "",
        "stop_lat": "40.82258",
        "stop_lon": "140.798387",
        "zone_id": "163_02",
        "stop_url": "",
        "location_type": "0",
        "platform_code": "",
        "parent_station": "",
        "furigana": "おやなぎばし"
    },
    {
        "stop_id": "164_01",
        "stop_code": "",
        "stop_name": "明の星高校前",
        "name": "明の星高校前",
        "stop_desc": "",
        "stop_lat": "40.824054",
        "stop_lon": "140.780565",
        "zone_id": "164_01",
        "stop_url": "",
        "location_type": "0",
        "platform_code": "",
        "parent_station": "",
        "furigana": "あきらの ほしこうこうまえ"
    },
    {
        "stop_id": "164_02",
        "stop_code": "",
        "stop_name": "明の星高校前",
        "name": "明の星高校前",
        "stop_desc": "",
        "stop_lat": "40.823993",
        "stop_lon": "140.780356",
        "zone_id": "164_02",
        "stop_url": "",
        "location_type": "0",
        "platform_code": "",
        "parent_station": "",
        "furigana": "あきらの ほしこうこうまえ"
    },
    {
        "stop_id": "165_01",
        "stop_code": "",
        "stop_name": "東佃",
        "name": "東佃",
        "stop_desc": "",
        "stop_lat": "40.820009",
        "stop_lon": "140.782166",
        "zone_id": "165_01",
        "stop_url": "",
        "location_type": "0",
        "platform_code": "",
        "parent_station": "",
        "furigana": "ひがしつくだ"
    },
    {
        "stop_id": "165_02",
        "stop_code": "",
        "stop_name": "東佃",
        "name": "東佃",
        "stop_desc": "",
        "stop_lat": "40.821198",
        "stop_lon": "140.78144",
        "zone_id": "165_02",
        "stop_url": "",
        "location_type": "0",
        "platform_code": "",
        "parent_station": "",
        "furigana": "ひがしつくだ"
    },
    {
        "stop_id": "166_01",
        "stop_code": "",
        "stop_name": "南佃",
        "name": "南佃",
        "stop_desc": "",
        "stop_lat": "40.816252",
        "stop_lon": "140.784943",
        "zone_id": "166_01",
        "stop_url": "",
        "location_type": "0",
        "platform_code": "",
        "parent_station": "",
        "furigana": "みなみつくだ"
    },
    {
        "stop_id": "166_02",
        "stop_code": "",
        "stop_name": "南佃",
        "name": "南佃",
        "stop_desc": "",
        "stop_lat": "40.816356",
        "stop_lon": "140.784841",
        "zone_id": "166_02",
        "stop_url": "",
        "location_type": "0",
        "platform_code": "",
        "parent_station": "",
        "furigana": "みなみつくだ"
    },
    {
        "stop_id": "166_03",
        "stop_code": "",
        "stop_name": "南佃",
        "name": "南佃",
        "stop_desc": "",
        "stop_lat": "40.816944",
        "stop_lon": "140.785576",
        "zone_id": "166_03",
        "stop_url": "",
        "location_type": "0",
        "platform_code": "",
        "parent_station": "",
        "furigana": "みなみつくだ"
    },
    {
        "stop_id": "166_04",
        "stop_code": "",
        "stop_name": "南佃",
        "name": "南佃",
        "stop_desc": "",
        "stop_lat": "40.816089",
        "stop_lon": "140.786955",
        "zone_id": "166_04",
        "stop_url": "",
        "location_type": "0",
        "platform_code": "",
        "parent_station": "",
        "furigana": "みなみつくだ"
    },
    {
        "stop_id": "167_01",
        "stop_code": "",
        "stop_name": "県立保健大学前",
        "name": "県立保健大学前",
        "stop_desc": "",
        "stop_lat": "40.81176",
        "stop_lon": "140.791142",
        "zone_id": "167_01",
        "stop_url": "",
        "location_type": "0",
        "platform_code": "",
        "parent_station": "",
        "furigana": "けんりつほけんだいがくまえ"
    },
    {
        "stop_id": "167_02",
        "stop_code": "",
        "stop_name": "県立保健大学前",
        "name": "県立保健大学前",
        "stop_desc": "",
        "stop_lat": "40.811531",
        "stop_lon": "140.79104",
        "zone_id": "167_02",
        "stop_url": "",
        "location_type": "0",
        "platform_code": "",
        "parent_station": "",
        "furigana": "けんりつほけんだいがくまえ"
    },
    {
        "stop_id": "169_01",
        "stop_code": "",
        "stop_name": "月見野入口",
        "name": "月見野入口",
        "stop_desc": "",
        "stop_lat": "40.79964",
        "stop_lon": "140.795402",
        "zone_id": "169_01",
        "stop_url": "",
        "location_type": "0",
        "platform_code": "",
        "parent_station": "",
        "furigana": "つきみのいりぐち"
    },
    {
        "stop_id": "169_02",
        "stop_code": "",
        "stop_name": "月見野入口",
        "name": "月見野入口",
        "stop_desc": "",
        "stop_lat": "40.799547",
        "stop_lon": "140.795686",
        "zone_id": "169_02",
        "stop_url": "",
        "location_type": "0",
        "platform_code": "",
        "parent_station": "",
        "furigana": "つきみのいりぐち"
    },
    {
        "stop_id": "170_01",
        "stop_code": "",
        "stop_name": "月見野",
        "name": "月見野",
        "stop_desc": "",
        "stop_lat": "40.79706",
        "stop_lon": "140.797159",
        "zone_id": "170_01",
        "stop_url": "",
        "location_type": "0",
        "platform_code": "",
        "parent_station": "",
        "furigana": "つきみの"
    },
    {
        "stop_id": "170_02",
        "stop_code": "",
        "stop_name": "月見野",
        "name": "月見野",
        "stop_desc": "",
        "stop_lat": "40.797157",
        "stop_lon": "140.796955",
        "zone_id": "170_02",
        "stop_url": "",
        "location_type": "0",
        "platform_code": "",
        "parent_station": "",
        "furigana": "つきみの"
    },
    {
        "stop_id": "171_01",
        "stop_code": "",
        "stop_name": "戸山団地入口",
        "name": "戸山団地入口",
        "stop_desc": "",
        "stop_lat": "40.795428",
        "stop_lon": "140.798502",
        "zone_id": "171_01",
        "stop_url": "",
        "location_type": "0",
        "platform_code": "",
        "parent_station": "",
        "furigana": "とやまだんちいりぐち"
    },
    {
        "stop_id": "171_02",
        "stop_code": "",
        "stop_name": "戸山団地入口",
        "name": "戸山団地入口",
        "stop_desc": "",
        "stop_lat": "40.79542",
        "stop_lon": "140.797762",
        "zone_id": "171_02",
        "stop_url": "",
        "location_type": "0",
        "platform_code": "",
        "parent_station": "",
        "furigana": "とやまだんちいりぐち"
    },
    {
        "stop_id": "171_03",
        "stop_code": "",
        "stop_name": "戸山団地入口",
        "name": "戸山団地入口",
        "stop_desc": "",
        "stop_lat": "40.79483",
        "stop_lon": "140.798546",
        "zone_id": "171_03",
        "stop_url": "",
        "location_type": "0",
        "platform_code": "",
        "parent_station": "",
        "furigana": "とやまだんちいりぐち"
    },
    {
        "stop_id": "172_01",
        "stop_code": "",
        "stop_name": "月見野霊園",
        "name": "月見野霊園",
        "stop_desc": "",
        "stop_lat": "40.786793",
        "stop_lon": "140.809316714286",
        "zone_id": "172_01",
        "stop_url": "",
        "location_type": "0",
        "platform_code": "",
        "parent_station": "",
        "furigana": "つきみのれいえん"
    },
    {
        "stop_id": "172_02",
        "stop_code": "",
        "stop_name": "月見野霊園",
        "name": "月見野霊園",
        "stop_desc": "",
        "stop_lat": "40.786671",
        "stop_lon": "140.80943",
        "zone_id": "172_02",
        "stop_url": "",
        "location_type": "0",
        "platform_code": "",
        "parent_station": "",
        "furigana": "つきみのれいえん"
    },
    {
        "stop_id": "172_03",
        "stop_code": "",
        "stop_name": "月見野霊園",
        "name": "月見野霊園",
        "stop_desc": "",
        "stop_lat": "40.7865407749933",
        "stop_lon": "140.809514522552",
        "zone_id": "172_03",
        "stop_url": "",
        "location_type": "0",
        "platform_code": "",
        "parent_station": "",
        "furigana": "つきみのれいえん"
    },
    {
        "stop_id": "173_01",
        "stop_code": "",
        "stop_name": "戸山団地中央通り",
        "name": "戸山団地中央通り",
        "stop_desc": "",
        "stop_lat": "40.79732",
        "stop_lon": "140.801222",
        "zone_id": "173_01",
        "stop_url": "",
        "location_type": "0",
        "platform_code": "",
        "parent_station": "",
        "furigana": "とやまだんちちゅうおうどおり"
    },
    {
        "stop_id": "173_02",
        "stop_code": "",
        "stop_name": "戸山団地中央通り",
        "name": "戸山団地中央通り",
        "stop_desc": "",
        "stop_lat": "40.797167",
        "stop_lon": "140.80139",
        "zone_id": "173_02",
        "stop_url": "",
        "location_type": "0",
        "platform_code": "",
        "parent_station": "",
        "furigana": "とやまだんちちゅうおうどおり"
    },
    {
        "stop_id": "174_01",
        "stop_code": "",
        "stop_name": "戸山中央公園前",
        "name": "戸山中央公園前",
        "stop_desc": "",
        "stop_lat": "40.796382",
        "stop_lon": "140.805822",
        "zone_id": "174_01",
        "stop_url": "",
        "location_type": "0",
        "platform_code": "",
        "parent_station": "",
        "furigana": "とやまちゅうおうこうえんまえ"
    },
    {
        "stop_id": "174_02",
        "stop_code": "",
        "stop_name": "戸山中央公園前",
        "name": "戸山中央公園前",
        "stop_desc": "",
        "stop_lat": "40.796142",
        "stop_lon": "140.805844",
        "zone_id": "174_02",
        "stop_url": "",
        "location_type": "0",
        "platform_code": "",
        "parent_station": "",
        "furigana": "とやまちゅうおうこうえんまえ"
    },
    {
        "stop_id": "175_01",
        "stop_code": "",
        "stop_name": "北蛍沢",
        "name": "北蛍沢",
        "stop_desc": "",
        "stop_lat": "40.79946",
        "stop_lon": "140.799416",
        "zone_id": "175_01",
        "stop_url": "",
        "location_type": "0",
        "platform_code": "",
        "parent_station": "",
        "furigana": "きたほたるさわ"
    },
    {
        "stop_id": "175_02",
        "stop_code": "",
        "stop_name": "北蛍沢",
        "name": "北蛍沢",
        "stop_desc": "",
        "stop_lat": "40.799399",
        "stop_lon": "140.799289",
        "zone_id": "175_02",
        "stop_url": "",
        "location_type": "0",
        "platform_code": "",
        "parent_station": "",
        "furigana": "きたほたるさわ"
    },
    {
        "stop_id": "176_01",
        "stop_code": "",
        "stop_name": "戸山西小学校前",
        "name": "戸山西小学校前",
        "stop_desc": "",
        "stop_lat": "40.801822",
        "stop_lon": "140.799644",
        "zone_id": "176_01",
        "stop_url": "",
        "location_type": "0",
        "platform_code": "",
        "parent_station": "",
        "furigana": "とやまにししょうがっこうまえ"
    },
    {
        "stop_id": "176_02",
        "stop_code": "",
        "stop_name": "戸山西小学校前",
        "name": "戸山西小学校前",
        "stop_desc": "",
        "stop_lat": "40.801692",
        "stop_lon": "140.799429",
        "zone_id": "176_02",
        "stop_url": "",
        "location_type": "0",
        "platform_code": "",
        "parent_station": "",
        "furigana": "とやまにししょうがっこうまえ"
    },
    {
        "stop_id": "177_01",
        "stop_code": "",
        "stop_name": "戸山",
        "name": "戸山",
        "stop_desc": "",
        "stop_lat": "40.805857",
        "stop_lon": "140.801445",
        "zone_id": "177_01",
        "stop_url": "",
        "location_type": "0",
        "platform_code": "",
        "parent_station": "",
        "furigana": "とやま"
    },
    {
        "stop_id": "177_02",
        "stop_code": "",
        "stop_name": "戸山",
        "name": "戸山",
        "stop_desc": "",
        "stop_lat": "40.806061",
        "stop_lon": "140.801586",
        "zone_id": "177_02",
        "stop_url": "",
        "location_type": "0",
        "platform_code": "",
        "parent_station": "",
        "furigana": "とやま"
    },
    {
        "stop_id": "178_01",
        "stop_code": "",
        "stop_name": "戸崎",
        "name": "戸崎",
        "stop_desc": "",
        "stop_lat": "40.814165",
        "stop_lon": "140.812221",
        "zone_id": "178_01",
        "stop_url": "",
        "location_type": "0",
        "platform_code": "",
        "parent_station": "",
        "furigana": "とざき"
    },
    {
        "stop_id": "178_02",
        "stop_code": "",
        "stop_name": "戸崎",
        "name": "戸崎",
        "stop_desc": "",
        "stop_lat": "40.814068",
        "stop_lon": "140.812336",
        "zone_id": "178_02",
        "stop_url": "",
        "location_type": "0",
        "platform_code": "",
        "parent_station": "",
        "furigana": "とざき"
    },
    {
        "stop_id": "179_01",
        "stop_code": "",
        "stop_name": "桑原",
        "name": "桑原",
        "stop_desc": "",
        "stop_lat": "40.820657",
        "stop_lon": "140.81033",
        "zone_id": "179_01",
        "stop_url": "",
        "location_type": "0",
        "platform_code": "",
        "parent_station": "",
        "furigana": "くわばら"
    },
    {
        "stop_id": "179_02",
        "stop_code": "",
        "stop_name": "桑原",
        "name": "桑原",
        "stop_desc": "",
        "stop_lat": "40.820622",
        "stop_lon": "140.81036",
        "zone_id": "179_02",
        "stop_url": "",
        "location_type": "0",
        "platform_code": "",
        "parent_station": "",
        "furigana": "くわばら"
    },
    {
        "stop_id": "180_01",
        "stop_code": "",
        "stop_name": "佃中学校前",
        "name": "佃中学校前",
        "stop_desc": "",
        "stop_lat": "40.814592",
        "stop_lon": "140.779809",
        "zone_id": "180_01",
        "stop_url": "",
        "location_type": "0",
        "platform_code": "",
        "parent_station": "",
        "furigana": "つくだちゅうがっこうまえ"
    },
    {
        "stop_id": "180_02",
        "stop_code": "",
        "stop_name": "佃中学校前",
        "name": "佃中学校前",
        "stop_desc": "",
        "stop_lat": "40.814769",
        "stop_lon": "140.779876",
        "zone_id": "180_02",
        "stop_url": "",
        "location_type": "0",
        "platform_code": "",
        "parent_station": "",
        "furigana": "つくだちゅうがっこうまえ"
    },
    {
        "stop_id": "181_01",
        "stop_code": "",
        "stop_name": "花園二丁目",
        "name": "花園二丁目",
        "stop_desc": "",
        "stop_lat": "40.822132",
        "stop_lon": "140.77043",
        "zone_id": "181_01",
        "stop_url": "",
        "location_type": "0",
        "platform_code": "",
        "parent_station": "",
        "furigana": "はなぞのにちょうめ"
    },
    {
        "stop_id": "181_02",
        "stop_code": "",
        "stop_name": "花園二丁目",
        "name": "花園二丁目",
        "stop_desc": "",
        "stop_lat": "40.82226",
        "stop_lon": "140.770028",
        "zone_id": "181_02",
        "stop_url": "",
        "location_type": "0",
        "platform_code": "",
        "parent_station": "",
        "furigana": "はなぞのにちょうめ"
    },
    {
        "stop_id": "182_01",
        "stop_code": "",
        "stop_name": "福田",
        "name": "福田",
        "stop_desc": "",
        "stop_lat": "40.820248",
        "stop_lon": "140.772369",
        "zone_id": "182_01",
        "stop_url": "",
        "location_type": "0",
        "platform_code": "",
        "parent_station": "",
        "furigana": "ふくだ"
    },
    {
        "stop_id": "182_02",
        "stop_code": "",
        "stop_name": "福田",
        "name": "福田",
        "stop_desc": "",
        "stop_lat": "40.820731",
        "stop_lon": "140.771556",
        "zone_id": "182_02",
        "stop_url": "",
        "location_type": "0",
        "platform_code": "",
        "parent_station": "",
        "furigana": "ふくだ"
    },
    {
        "stop_id": "183_01",
        "stop_code": "",
        "stop_name": "西佃",
        "name": "西佃",
        "stop_desc": "",
        "stop_lat": "40.817951",
        "stop_lon": "140.77441",
        "zone_id": "183_01",
        "stop_url": "",
        "location_type": "0",
        "platform_code": "",
        "parent_station": "",
        "furigana": "にしつくだ"
    },
    {
        "stop_id": "183_02",
        "stop_code": "",
        "stop_name": "西佃",
        "name": "西佃",
        "stop_desc": "",
        "stop_lat": "40.817758",
        "stop_lon": "140.774289",
        "zone_id": "183_02",
        "stop_url": "",
        "location_type": "0",
        "platform_code": "",
        "parent_station": "",
        "furigana": "にしつくだ"
    },
    {
        "stop_id": "184_01",
        "stop_code": "",
        "stop_name": "松森",
        "name": "松森",
        "stop_desc": "",
        "stop_lat": "40.816082",
        "stop_lon": "140.775311",
        "zone_id": "184_01",
        "stop_url": "",
        "location_type": "0",
        "platform_code": "",
        "parent_station": "",
        "furigana": "まつもり"
    },
    {
        "stop_id": "184_02",
        "stop_code": "",
        "stop_name": "松森",
        "name": "松森",
        "stop_desc": "",
        "stop_lat": "40.815838",
        "stop_lon": "140.775204",
        "zone_id": "184_02",
        "stop_url": "",
        "location_type": "0",
        "platform_code": "",
        "parent_station": "",
        "furigana": "まつもり"
    },
    {
        "stop_id": "185_01",
        "stop_code": "",
        "stop_name": "佃",
        "name": "佃",
        "stop_desc": "",
        "stop_lat": "40.813096",
        "stop_lon": "140.77677",
        "zone_id": "185_01",
        "stop_url": "",
        "location_type": "0",
        "platform_code": "",
        "parent_station": "",
        "furigana": "つくだ"
    },
    {
        "stop_id": "185_02",
        "stop_code": "",
        "stop_name": "佃",
        "name": "佃",
        "stop_desc": "",
        "stop_lat": "40.813989",
        "stop_lon": "140.775998",
        "zone_id": "185_02",
        "stop_url": "",
        "location_type": "0",
        "platform_code": "",
        "parent_station": "",
        "furigana": "つくだ"
    },
    {
        "stop_id": "185_03",
        "stop_code": "",
        "stop_name": "佃",
        "name": "佃",
        "stop_desc": "",
        "stop_lat": "40.813827",
        "stop_lon": "140.777384",
        "zone_id": "185_03",
        "stop_url": "",
        "location_type": "0",
        "platform_code": "",
        "parent_station": "",
        "furigana": "つくだ"
    },
    {
        "stop_id": "185_04",
        "stop_code": "",
        "stop_name": "佃",
        "name": "佃",
        "stop_desc": "",
        "stop_lat": "40.813656",
        "stop_lon": "140.77737",
        "zone_id": "185_04",
        "stop_url": "",
        "location_type": "0",
        "platform_code": "",
        "parent_station": "",
        "furigana": "つくだ"
    },
    {
        "stop_id": "186_01",
        "stop_code": "",
        "stop_name": "上松森",
        "name": "上松森",
        "stop_desc": "",
        "stop_lat": "40.811487",
        "stop_lon": "140.778202",
        "zone_id": "186_01",
        "stop_url": "",
        "location_type": "0",
        "platform_code": "",
        "parent_station": "",
        "furigana": "かみまつもり"
    },
    {
        "stop_id": "186_02",
        "stop_code": "",
        "stop_name": "上松森",
        "name": "上松森",
        "stop_desc": "",
        "stop_lat": "40.811473",
        "stop_lon": "140.777936",
        "zone_id": "186_02",
        "stop_url": "",
        "location_type": "0",
        "platform_code": "",
        "parent_station": "",
        "furigana": "かみまつもり"
    },
    {
        "stop_id": "187_01",
        "stop_code": "",
        "stop_name": "古館",
        "name": "古館",
        "stop_desc": "",
        "stop_lat": "40.805771",
        "stop_lon": "140.780791",
        "zone_id": "187_01",
        "stop_url": "",
        "location_type": "0",
        "platform_code": "",
        "parent_station": "",
        "furigana": "ふるだて"
    },
    {
        "stop_id": "187_02",
        "stop_code": "",
        "stop_name": "古館",
        "name": "古館",
        "stop_desc": "",
        "stop_lat": "40.80546",
        "stop_lon": "140.780702",
        "zone_id": "187_02",
        "stop_url": "",
        "location_type": "0",
        "platform_code": "",
        "parent_station": "",
        "furigana": "ふるだて"
    },
    {
        "stop_id": "189_01",
        "stop_code": "",
        "stop_name": "浜館三丁目",
        "name": "浜館三丁目",
        "stop_desc": "",
        "stop_lat": "40.808928",
        "stop_lon": "140.785878",
        "zone_id": "189_01",
        "stop_url": "",
        "location_type": "0",
        "platform_code": "",
        "parent_station": "",
        "furigana": "はまだてさんちょうめ"
    },
    {
        "stop_id": "189_02",
        "stop_code": "",
        "stop_name": "浜館三丁目",
        "name": "浜館三丁目",
        "stop_desc": "",
        "stop_lat": "40.808861",
        "stop_lon": "140.786034",
        "zone_id": "189_02",
        "stop_url": "",
        "location_type": "0",
        "platform_code": "",
        "parent_station": "",
        "furigana": "はまだてさんちょうめ"
    },
    {
        "stop_id": "193_01",
        "stop_code": "",
        "stop_name": "平和公園前",
        "name": "平和公園前",
        "stop_desc": "",
        "stop_lat": "40.81947",
        "stop_lon": "140.754969",
        "zone_id": "193_01",
        "stop_url": "",
        "location_type": "0",
        "platform_code": "",
        "parent_station": "",
        "furigana": "へいわこうえんまえ"
    },
    {
        "stop_id": "193_02",
        "stop_code": "",
        "stop_name": "平和公園前",
        "name": "平和公園前",
        "stop_desc": "",
        "stop_lat": "40.819444",
        "stop_lon": "140.754706",
        "zone_id": "193_02",
        "stop_url": "",
        "location_type": "0",
        "platform_code": "",
        "parent_station": "",
        "furigana": "へいわこうえんまえ"
    },
    {
        "stop_id": "194_01",
        "stop_code": "",
        "stop_name": "棟方志功記念館通り",
        "name": "棟方志功記念館通り",
        "stop_desc": "",
        "stop_lat": "40.82045",
        "stop_lon": "140.763019",
        "zone_id": "194_01",
        "stop_url": "",
        "location_type": "0",
        "platform_code": "",
        "parent_station": "",
        "furigana": "むなかたしこうきねんかんどおり"
    },
    {
        "stop_id": "194_02",
        "stop_code": "",
        "stop_name": "棟方志功記念館通り",
        "name": "棟方志功記念館通り",
        "stop_desc": "",
        "stop_lat": "40.820973",
        "stop_lon": "140.762648",
        "zone_id": "194_02",
        "stop_url": "",
        "location_type": "0",
        "platform_code": "",
        "parent_station": "",
        "furigana": "むなかたしこうきねんかんどおり"
    },
    {
        "stop_id": "195_01",
        "stop_code": "",
        "stop_name": "松原三丁目",
        "name": "松原三丁目",
        "stop_desc": "",
        "stop_lat": "40.816455",
        "stop_lon": "140.763946",
        "zone_id": "195_01",
        "stop_url": "",
        "location_type": "0",
        "platform_code": "",
        "parent_station": "",
        "furigana": "まつばらさんちょうめ"
    },
    {
        "stop_id": "195_02",
        "stop_code": "",
        "stop_name": "松原三丁目",
        "name": "松原三丁目",
        "stop_desc": "",
        "stop_lat": "40.816847",
        "stop_lon": "140.763833",
        "zone_id": "195_02",
        "stop_url": "",
        "location_type": "0",
        "platform_code": "",
        "parent_station": "",
        "furigana": "まつばらさんちょうめ"
    },
    {
        "stop_id": "196_01",
        "stop_code": "",
        "stop_name": "奥野",
        "name": "奥野",
        "stop_desc": "",
        "stop_lat": "40.813516",
        "stop_lon": "140.763857",
        "zone_id": "196_01",
        "stop_url": "",
        "location_type": "0",
        "platform_code": "",
        "parent_station": "",
        "furigana": "おくの"
    },
    {
        "stop_id": "196_02",
        "stop_code": "",
        "stop_name": "奥野",
        "name": "奥野",
        "stop_desc": "",
        "stop_lat": "40.813853",
        "stop_lon": "140.763758",
        "zone_id": "196_02",
        "stop_url": "",
        "location_type": "0",
        "platform_code": "",
        "parent_station": "",
        "furigana": "おくの"
    },
    {
        "stop_id": "197_01",
        "stop_code": "",
        "stop_name": "筒井通り",
        "name": "筒井通り",
        "stop_desc": "",
        "stop_lat": "40.810106",
        "stop_lon": "140.763661",
        "zone_id": "197_01",
        "stop_url": "",
        "location_type": "0",
        "platform_code": "",
        "parent_station": "",
        "furigana": "つついどおり"
    },
    {
        "stop_id": "197_02",
        "stop_code": "",
        "stop_name": "筒井通り",
        "name": "筒井通り",
        "stop_desc": "",
        "stop_lat": "40.811239",
        "stop_lon": "140.762708",
        "zone_id": "197_02",
        "stop_url": "",
        "location_type": "0",
        "platform_code": "",
        "parent_station": "",
        "furigana": "つついどおり"
    },
    {
        "stop_id": "198_01",
        "stop_code": "",
        "stop_name": "青森高校前",
        "name": "青森高校前",
        "stop_desc": "",
        "stop_lat": "40.807548",
        "stop_lon": "140.767279",
        "zone_id": "198_01",
        "stop_url": "",
        "location_type": "0",
        "platform_code": "",
        "parent_station": "",
        "furigana": "あおもりこうこうまえ"
    },
    {
        "stop_id": "198_02",
        "stop_code": "",
        "stop_name": "青森高校前",
        "name": "青森高校前",
        "stop_desc": "",
        "stop_lat": "40.808421",
        "stop_lon": "140.765825",
        "zone_id": "198_02",
        "stop_url": "",
        "location_type": "0",
        "platform_code": "",
        "parent_station": "",
        "furigana": "あおもりこうこうまえ"
    },
    {
        "stop_id": "200_01",
        "stop_code": "",
        "stop_name": "下筒井",
        "name": "下筒井",
        "stop_desc": "",
        "stop_lat": "40.805015",
        "stop_lon": "140.771752",
        "zone_id": "200_01",
        "stop_url": "",
        "location_type": "0",
        "platform_code": "",
        "parent_station": "",
        "furigana": "げつつい"
    },
    {
        "stop_id": "200_02",
        "stop_code": "",
        "stop_name": "下筒井",
        "name": "下筒井",
        "stop_desc": "",
        "stop_lat": "40.804761",
        "stop_lon": "140.772055",
        "zone_id": "200_02",
        "stop_url": "",
        "location_type": "0",
        "platform_code": "",
        "parent_station": "",
        "furigana": "げつつい"
    },
    {
        "stop_id": "201_01",
        "stop_code": "",
        "stop_name": "中筒井",
        "name": "中筒井",
        "stop_desc": "",
        "stop_lat": "40.802541",
        "stop_lon": "140.775395",
        "zone_id": "201_01",
        "stop_url": "",
        "location_type": "0",
        "platform_code": "",
        "parent_station": "",
        "furigana": "なかつつい"
    },
    {
        "stop_id": "201_02",
        "stop_code": "",
        "stop_name": "中筒井",
        "name": "中筒井",
        "stop_desc": "",
        "stop_lat": "40.8024",
        "stop_lon": "140.775328",
        "zone_id": "201_02",
        "stop_url": "",
        "location_type": "0",
        "platform_code": "",
        "parent_station": "",
        "furigana": "なかつつい"
    },
    {
        "stop_id": "201_03",
        "stop_code": "",
        "stop_name": "中筒井",
        "name": "中筒井",
        "stop_desc": "",
        "stop_lat": "40.803351",
        "stop_lon": "140.77554",
        "zone_id": "201_03",
        "stop_url": "",
        "location_type": "0",
        "platform_code": "",
        "parent_station": "",
        "furigana": "なかつつい"
    },
    {
        "stop_id": "201_04",
        "stop_code": "",
        "stop_name": "中筒井",
        "name": "中筒井",
        "stop_desc": "",
        "stop_lat": "40.803266",
        "stop_lon": "140.775505",
        "zone_id": "201_04",
        "stop_url": "",
        "location_type": "0",
        "platform_code": "",
        "parent_station": "",
        "furigana": "なかつつい"
    },
    {
        "stop_id": "202_01",
        "stop_code": "",
        "stop_name": "古館十文字",
        "name": "古館十文字",
        "stop_desc": "",
        "stop_lat": "40.801467",
        "stop_lon": "140.781994",
        "zone_id": "202_01",
        "stop_url": "",
        "location_type": "0",
        "platform_code": "",
        "parent_station": "",
        "furigana": "こだてじゅうもんじ"
    },
    {
        "stop_id": "202_02",
        "stop_code": "",
        "stop_name": "古館十文字",
        "name": "古館十文字",
        "stop_desc": "",
        "stop_lat": "40.801709",
        "stop_lon": "140.781259",
        "zone_id": "202_02",
        "stop_url": "",
        "location_type": "0",
        "platform_code": "",
        "parent_station": "",
        "furigana": "こだてじゅうもんじ"
    },
    {
        "stop_id": "203_01",
        "stop_code": "",
        "stop_name": "古館大柳",
        "name": "古館大柳",
        "stop_desc": "",
        "stop_lat": "40.798939",
        "stop_lon": "140.786579",
        "zone_id": "203_01",
        "stop_url": "",
        "location_type": "0",
        "platform_code": "",
        "parent_station": "",
        "furigana": "こだておおりゅう"
    },
    {
        "stop_id": "203_02",
        "stop_code": "",
        "stop_name": "古館大柳",
        "name": "古館大柳",
        "stop_desc": "",
        "stop_lat": "40.798868",
        "stop_lon": "140.786516",
        "zone_id": "203_02",
        "stop_url": "",
        "location_type": "0",
        "platform_code": "",
        "parent_station": "",
        "furigana": "こだておおりゅう"
    },
    {
        "stop_id": "204_01",
        "stop_code": "",
        "stop_name": "駒込見吉通り",
        "name": "駒込見吉通り",
        "stop_desc": "",
        "stop_lat": "40.798342",
        "stop_lon": "140.788729",
        "zone_id": "204_01",
        "stop_url": "",
        "location_type": "0",
        "platform_code": "",
        "parent_station": "",
        "furigana": "こまごめみよしどおり"
    },
    {
        "stop_id": "204_02",
        "stop_code": "",
        "stop_name": "駒込見吉通り",
        "name": "駒込見吉通り",
        "stop_desc": "",
        "stop_lat": "40.798258",
        "stop_lon": "140.788646",
        "zone_id": "204_02",
        "stop_url": "",
        "location_type": "0",
        "platform_code": "",
        "parent_station": "",
        "furigana": "こまごめみよしどおり"
    },
    {
        "stop_id": "205_01",
        "stop_code": "",
        "stop_name": "駒込",
        "name": "駒込",
        "stop_desc": "",
        "stop_lat": "40.798492",
        "stop_lon": "140.792057",
        "zone_id": "205_01",
        "stop_url": "",
        "location_type": "0",
        "platform_code": "",
        "parent_station": "",
        "furigana": "こまごめ"
    },
    {
        "stop_id": "205_02",
        "stop_code": "",
        "stop_name": "駒込",
        "name": "駒込",
        "stop_desc": "",
        "stop_lat": "40.798373",
        "stop_lon": "140.792344",
        "zone_id": "205_02",
        "stop_url": "",
        "location_type": "0",
        "platform_code": "",
        "parent_station": "",
        "furigana": "こまごめ"
    },
    {
        "stop_id": "206_01",
        "stop_code": "",
        "stop_name": "上筒井",
        "name": "上筒井",
        "stop_desc": "",
        "stop_lat": "40.798851",
        "stop_lon": "140.776414",
        "zone_id": "206_01",
        "stop_url": "",
        "location_type": "0",
        "platform_code": "",
        "parent_station": "",
        "furigana": "かみつつい"
    },
    {
        "stop_id": "206_02",
        "stop_code": "",
        "stop_name": "上筒井",
        "name": "上筒井",
        "stop_desc": "",
        "stop_lat": "40.798701",
        "stop_lon": "140.776288",
        "zone_id": "206_02",
        "stop_url": "",
        "location_type": "0",
        "platform_code": "",
        "parent_station": "",
        "furigana": "かみつつい"
    },
    {
        "stop_id": "207_01",
        "stop_code": "",
        "stop_name": "幸畑唐崎",
        "name": "幸畑唐崎",
        "stop_desc": "",
        "stop_lat": "40.794636",
        "stop_lon": "140.780091",
        "zone_id": "207_01",
        "stop_url": "",
        "location_type": "0",
        "platform_code": "",
        "parent_station": "",
        "furigana": "こうばたからさき"
    },
    {
        "stop_id": "207_02",
        "stop_code": "",
        "stop_name": "幸畑唐崎",
        "name": "幸畑唐崎",
        "stop_desc": "",
        "stop_lat": "40.794652",
        "stop_lon": "140.779909",
        "zone_id": "207_02",
        "stop_url": "",
        "location_type": "0",
        "platform_code": "",
        "parent_station": "",
        "furigana": "こうばたからさき"
    },
    {
        "stop_id": "208_01",
        "stop_code": "",
        "stop_name": "松元台団地",
        "name": "松元台団地",
        "stop_desc": "",
        "stop_lat": "40.79214",
        "stop_lon": "140.784278",
        "zone_id": "208_01",
        "stop_url": "",
        "location_type": "0",
        "platform_code": "",
        "parent_station": "",
        "furigana": "まつもとだいだんち"
    },
    {
        "stop_id": "208_02",
        "stop_code": "",
        "stop_name": "松元台団地",
        "name": "松元台団地",
        "stop_desc": "",
        "stop_lat": "40.792016",
        "stop_lon": "140.784326",
        "zone_id": "208_02",
        "stop_url": "",
        "location_type": "0",
        "platform_code": "",
        "parent_station": "",
        "furigana": "まつもとだいだんち"
    },
    {
        "stop_id": "209_01",
        "stop_code": "",
        "stop_name": "幸畑",
        "name": "幸畑",
        "stop_desc": "",
        "stop_lat": "40.791685",
        "stop_lon": "140.786673",
        "zone_id": "209_01",
        "stop_url": "",
        "location_type": "0",
        "platform_code": "",
        "parent_station": "",
        "furigana": "こうばた"
    },
    {
        "stop_id": "209_02",
        "stop_code": "",
        "stop_name": "幸畑",
        "name": "幸畑",
        "stop_desc": "",
        "stop_lat": "40.790954",
        "stop_lon": "140.786729",
        "zone_id": "209_02",
        "stop_url": "",
        "location_type": "0",
        "platform_code": "",
        "parent_station": "",
        "furigana": "こうばた"
    },
    {
        "stop_id": "209_04",
        "stop_code": "",
        "stop_name": "幸畑",
        "name": "幸畑",
        "stop_desc": "",
        "stop_lat": "40.790184",
        "stop_lon": "140.788009",
        "zone_id": "209_04",
        "stop_url": "",
        "location_type": "0",
        "platform_code": "",
        "parent_station": "",
        "furigana": "こうばた"
    },
    {
        "stop_id": "209_05",
        "stop_code": "",
        "stop_name": "幸畑",
        "name": "幸畑",
        "stop_desc": "",
        "stop_lat": "40.790357",
        "stop_lon": "140.788108",
        "zone_id": "209_05",
        "stop_url": "",
        "location_type": "0",
        "platform_code": "",
        "parent_station": "",
        "furigana": "こうばた"
    },
    {
        "stop_id": "210_01",
        "stop_code": "",
        "stop_name": "幸畑墓苑",
        "name": "幸畑墓苑",
        "stop_desc": "",
        "stop_lat": "40.785411",
        "stop_lon": "140.789838",
        "zone_id": "210_01",
        "stop_url": "",
        "location_type": "0",
        "platform_code": "",
        "parent_station": "",
        "furigana": "こうばたぼえん"
    },