[
    {
        "lat": 40.8281473,
        "lon": 140.7355493,
        "name": "ファミリーマート青森駅前店",
        "furigana": "ふぁみりーまーとあおもりえきまえてん",
        "stop_id": "_01",
        "shop": "ファミリーマート"
    },
    {
        "lat": 40.8238422,
        "lon": 140.7543647,
        "name": "ファミリーマート青森橋本一丁目店",
        "furigana": "ふぁみりーまーとあおもりはしもといっちょうめてん",
        "stop_id": "_01",
        "shop": "ファミリーマート"
    },
    {
        "lat": 40.8310622,
        "lon": 140.6628652,
        "name": "ファミリーマート青森新城山田店",
        "furigana": "ふぁみりーまーとあおもりしんしろやまだてん",
        "stop_id": "_01",
        "shop": "ファミリーマート"
    },
    {
        "lat": 40.826277,
        "lon": 140.7479413,
        "name": "ファミリーマート青森ジャスマック店",
        "furigana": "ふぁみりーまーとあおもりじゃすまっくてん",
        "stop_id": "_01",
        "shop": "ファミリーマート"
    },
    {
        "lat": 40.8260817,
        "lon": 140.6821405,
        "name": "ファミリーマート青森新城平岡店",
        "furigana": "ふぁみりーまーとあおもりしんしろひらおかてん",
        "stop_id": "_01",
        "shop": "ファミリーマート"
    },
    {
        "lat": 40.8179127,
        "lon": 140.7505891,
        "name": "ファミリーマート青森中央三丁目店",
        "furigana": "ふぁみりーまーとあおもりちゅうおうさんちょうめてん",
        "stop_id": "_01",
        "shop": "ファミリーマート"
    },
    {
        "lat": 40.82216529999999,
        "lon": 140.7816652,
        "name": "ファミリーマート青森佃三丁目店",
        "furigana": "ふぁみりーまーとあおもりつくださんちょうめてん",
        "stop_id": "_01",
        "shop": "ファミリーマート"
    },
    {
        "lat": 40.7171248,
        "lon": 140.589763,
        "name": "ファミリーマート青森浪岡平野店",
        "furigana": "ふぁみりーまーとあおもりなみおかへいやてん",
        "stop_id": "_01",
        "shop": "ファミリーマート"
    },
    {
        "lat": 40.8309564,
        "lon": 140.7151748,
        "name": "ファミリーマート青森富田一丁目店",
        "furigana": "ふぁみりーまーとあおもりとうだいっちょうめてん",
        "stop_id": "_01",
        "shop": "ファミリーマート"
    },
    {
        "lat": 40.8281445,
        "lon": 140.7244734,
        "name": "ファミリーマート青森篠田三丁目店",
        "furigana": "ふぁみりーまーとあおもりしのださんちょうめてん",
        "stop_id": "_01",
        "shop": "ファミリーマート"
    },
    {
        "lat": 40.8211432,
        "lon": 140.7962146,
        "name": "ファミリーマート青森小柳店",
        "furigana": "ふぁみりーまーとあおもりおやなぎてん",
        "stop_id": "_01",
        "shop": "ファミリーマート"
    },
    {
        "lat": 40.7145944,
        "lon": 140.5980961,
        "name": "ファミリーマート浪岡八幡宮前店",
        "furigana": "ふぁみりーまーとなみおかはちまんぐうまえてん",
        "stop_id": "_01",
        "shop": "ファミリーマート"
    },
    {
        "lat": 40.83563059999999,
        "lon": 140.7975569,
        "name": "ファミリーマート青森八重田二丁目店",
        "furigana": "ふぁみりーまーとあおもりやえだにちょうめてん",
        "stop_id": "_01",
        "shop": "ファミリーマート"
    },
    {
        "lat": 40.846246,
        "lon": 140.8166631,
        "name": "ファミリーマート青森野内店",
        "furigana": "ふぁみりーまーとあおもりのないてん",
        "stop_id": "_01",
        "shop": "ファミリーマート"
    },
    {
        "lat": 40.85980259999999,
        "lon": 140.6814209,
        "name": "ファミリーマート青森野木和店",
        "furigana": "ふぁみりーまーとあおもりのぎわてん",
        "stop_id": "_01",
        "shop": "ファミリーマート"
    },
    {
        "lat": 40.8172671,
        "lon": 140.7479601,
        "name": "ファミリーマート青森アピオ前店",
        "furigana": "ふぁみりーまーとあおもりあぴおぜんみせ",
        "stop_id": "_01",
        "shop": "ファミリーマート"
    },
    {
        "lat": 40.8265983,
        "lon": 140.6965734,
        "name": "ファミリーマート青森石江江渡店",
        "furigana": "ふぁみりーまーとあおもりいしええどてん",
        "stop_id": "_01",
        "shop": "ファミリーマート"
    },
    {
        "lat": 40.8086693,
        "lon": 140.7277753,
        "name": "ファミリーマート青森金沢店",
        "furigana": "ふぁみりーまーとあおもりかなざわてん",
        "stop_id": "_01",
        "shop": "ファミリーマート"
    },
    {
        "lat": 40.7600531,
        "lon": 140.5863776,
        "name": "ファミリーマート青森大釈迦西店",
        "furigana": "ふぁみりーまーとあおもりだいしゃかにしてん",
        "stop_id": "_01",
        "shop": "ファミリーマート"
    },
    {
        "lat": 40.8109613,
        "lon": 140.7175672,
        "name": "ファミリーマート青森浪館店",
        "furigana": "ふぁみりーまーとあおもりなみだててん",
        "stop_id": "_01",
        "shop": "ファミリーマート"
    },
    {
        "lat": 40.85569,
        "lon": 140.6954728,
        "name": "ファミリーマート青森油川店",
        "furigana": "ふぁみりーまーとあおもりあぶらかわてん",
        "stop_id": "_01",
        "shop": "ファミリーマート"
    },
    {
        "lat": 40.8226826,
        "lon": 140.7455738,
        "name": "ファミリーマート青森柳町店",
        "furigana": "ふぁみりーまーとあおもりやなぎちょうてん",
        "stop_id": "_01",
        "shop": "ファミリーマート"
    },
    {
        "lat": 40.7865003,
        "lon": 140.7624425,
        "name": "ファミリーマート青森中央市場前店",
        "furigana": "ふぁみりーまーとあおもりちゅうおうしじょうぜんみせ",
        "stop_id": "_01",
        "shop": "ファミリーマート"
    },
    {
        "lat": 40.7765467,
        "lon": 140.7636,
        "name": "ファミリーマート青森横内店",
        "furigana": "ふぁみりーまーとあおもりよこうちてん",
        "stop_id": "_01",
        "shop": "ファミリーマート"
    },
    {
        "lat": 40.7844603,
        "lon": 140.7789458,
        "name": "ファミリーマート青森青大前店",
        "furigana": "ふぁみりーまーとあおもりあおおおさきてん",
        "stop_id": "_01",
        "shop": "ファミリーマート"
    },
    {
        "lat": 40.7683283,
        "lon": 140.7246225,
        "name": "ファミリーマート青森高田店",
        "furigana": "ふぁみりーまーとあおもりたかたてん",
        "stop_id": "_01",
        "shop": "ファミリーマート"
    },
    {
        "lat": 40.8208083,
        "lon": 140.7624128,
        "name": "ファミリーマート青森松原一丁目店",
        "furigana": "ふぁみりーまーとあおもりまつばらいっちょうめてん",
        "stop_id": "_01",
        "shop": "ファミリーマート"
    },
    {
        "lat": 40.811501,
        "lon": 140.7712182,
        "name": "ファミリーマート青森桜川店",
        "furigana": "ふぁみりーまーとあおもりさくらがわてん",
        "stop_id": "_01",
        "shop": "ファミリーマート"
    },
    {
        "lat": 40.8097763,
        "lon": 140.7632575,
        "name": "ファミリーマート青森奥野四丁目店",
        "furigana": "ふぁみりーまーとあおもりおくのよんちょうめてん",
        "stop_id": "_01",
        "shop": "ファミリーマート"
    },
    {
        "lat": 40.8320938,
        "lon": 140.6905381,
        "name": "ファミリーマート新青森駅西口店",
        "furigana": "ふぁみりーまーとしんあおもりえきにしぐちてん",
        "stop_id": "_01",
        "shop": "ファミリーマート"
    },
    {
        "lat": 40.7225761,
        "lon": 140.60568,
        "name": "ファミリーマート青森浪岡前田店",
        "furigana": "ふぁみりーまーとあおもりなみおかまえたてん",
        "stop_id": "_01",
        "shop": "ファミリーマート"
    },
    {
        "lat": 40.8170136,
        "lon": 140.7559794,
        "name": "ファミリーマート青森勝田二丁目店",
        "furigana": "ふぁみりーまーとあおもりかつたにちょうめてん",
        "stop_id": "_01",
        "shop": "ファミリーマート"
    },
    {
        "lat": 40.7384314,
        "lon": 140.6891551,
        "name": "ファミリーマートＪＡＬ ＰＬＡＺＡ青森空港到着店",
        "furigana": "ふぁみりーまーとじゃる ぴーえるえーぜっとえーあおもりくうこうとうちゃくてん",
        "stop_id": "_01",
        "shop": "ファミリーマート"
    },
    {
        "lat": 40.7828289,
        "lon": 140.7379069,
        "name": "ファミリーマート青森荒川筒井店",
        "furigana": "ふぁみりーまーとあおもりあらかわつついてん",
        "stop_id": "_01",
        "shop": "ファミリーマート"
    },
    {
        "lat": 40.8290481,
        "lon": 140.7655944,
        "name": "ファミリーマート青森港町一丁目店",
        "furigana": "ふぁみりーまーとあおもりみなとまちいっちょうめてん",
        "stop_id": "_01",
        "shop": "ファミリーマート"
    },
    {
        "lat": 40.8442029,
        "lon": 140.7153146,
        "name": "ファミリーマート青森フェリー埠頭前店",
        "furigana": "ふぁみりーまーとあおもりふぇりーふとうぜんみせ",
        "stop_id": "_01",
        "shop": "ファミリーマート"
    },
    {
        "lat": 40.7495301,
        "lon": 140.5831054,
        "name": "ファミリーマート青森浪岡店",
        "furigana": "ふぁみりーまーとあおもりなみおかてん",
        "stop_id": "_01",
        "shop": "ファミリーマート"
    },
    {
        "lat": 40.8109928,
        "lon": 140.7907461,
        "name": "ファミリーマート青森浜館四丁目店",
        "furigana": "ふぁみりーまーとあおもりはまだてよんちょうめてん",
        "stop_id": "_01",
        "shop": "ファミリーマート"
    },
    {
        "lat": 40.8228401,
        "lon": 140.7762792,
        "name": "ファミリーマート青森浪打銀座店",
        "furigana": "ふぁみりーまーとあおもりなみうちぎんざてん",
        "stop_id": "_01",
        "shop": "ファミリーマート"
    },
    {
        "lat": 40.8389021,
        "lon": 140.7194833,
        "name": "ファミリーマート青森新田一丁目店",
        "furigana": "ふぁみりーまーとあおもりしんでんいっちょうめてん",
        "stop_id": "_01",
        "shop": "ファミリーマート"
    },
    {
        "lat": 40.7986064,
        "lon": 140.7956063,
        "name": "ファミリーマート青森戸山店",
        "furigana": "ふぁみりーまーとあおもりとやまてん",
        "stop_id": "_01",
        "shop": "ファミリーマート"
    }
]